restaurant_id,city_id,name,primary_type,types,business_status,pure_service_area,address,lat_value,long_value
ChIJ_VWb4xn6mUcRH4NujtHMKJI,0,Café Kult Dußlingen,cafe,"['cafe', 'breakfast_restaurant', 'coffee_shop', 'restaurant', 'point_of_interest', 'food_store', 'store', 'food', 'establishment']",OPERATIONAL,,"Bahnhofstraße 11, 72144 Dußlingen, Germany",48.4527192,9.0574849
ChIJo5EYOK_4mUcRi4shjNiEDUc,0,Boxenstop,bar,"['bar', 'restaurant', 'point_of_interest', 'food', 'establishment']",OPERATIONAL,,"Brunnenwiesen 6, 72144 Dußlingen, Germany",48.452360299999995,9.0623402
ChIJ_VfiMxj6mUcRRK_QBdxww7g,0,Alte Krone,italian_restaurant,"['italian_restaurant', 'liquor_store', 'restaurant', 'point_of_interest', 'store', 'food', 'establishment']",OPERATIONAL,,"Hindenburgpl. 25, 72144 Dußlingen, Germany",48.452234999999995,9.054786
ChIJT4FlA7zwmUcRcrmR1JIlwm8,0,Nazar Imbiss,restaurant,"['restaurant', 'point_of_interest', 'food', 'establishment']",OPERATIONAL,,"Bahnhofstraße 12, 72810 Gomaringen, Germany",48.4550226,9.0968865
ChIJnVLW97vwmUcRkHx9e10WkyE,0,Grissini Ristorante Trattoria,italian_restaurant,"['italian_restaurant', 'restaurant', 'point_of_interest', 'food', 'establishment']",OPERATIONAL,,"Bahnhofstraße 15, 72810 Gomaringen, Germany",48.4549397,9.0963507
ChIJ5dhz-EXxmUcRuZTn4wsBpQs,0,Italienisches Restaurant in Gomaringen Trattoria Da Daniele,italian_restaurant,"['italian_restaurant', 'catering_service', 'food_delivery', 'meal_takeaway', 'restaurant', 'point_of_interest', 'food', 'establishment']",OPERATIONAL,,"Bahnhofstraße 15, 72810 Gomaringen, Germany",48.4549198,9.096332499999999
ChIJ3xCcNgDxmUcRtLLUkaG5wY8,0,La piccola s'Casa Imbiss Pizza,pizza_restaurant,"['pizza_restaurant', 'restaurant', 'point_of_interest', 'food', 'establishment']",OPERATIONAL,,"Bahnhofstraße, 72810 Gomaringen, Germany",48.4566284,9.0980007
ChIJ3bJ1WPDxmUcRBC55YV0woIA,0,s'Casa,bar,"['bar', 'restaurant', 'point_of_interest', 'food', 'establishment']",OPERATIONAL,,"Bahnhofstraße 19, 72810 Gomaringen, Germany",48.4557285,9.0969157
ChIJyfOQ32r6mUcRlmkEAh1apbs,0,Gasthaus Schützenhaus / Partyservice Kaltenmark,restaurant,"['restaurant', 'catering_service', 'food_delivery', 'bar', 'food', 'point_of_interest', 'establishment']",OPERATIONAL,,"Beim Törle 50, 72144 Dußlingen, Germany",48.4640991,9.0589199
ChIJKTNtZZjwmUcRtKWjb8U2YqI,0,Wirtshaus Krone,restaurant,"['restaurant', 'food', 'point_of_interest', 'establishment']",OPERATIONAL,,"Kirchenweg 42, 72810 Gomaringen, Germany",48.4611911,9.0904923
ChIJ21ldIJXwmUcRqVJwdqcHroA,0,"Bakery Schmid ""cafe cult""",bakery,"['bakery', 'breakfast_restaurant', 'food_store', 'restaurant', 'food', 'point_of_interest', 'store', 'establishment']",OPERATIONAL,,"Raiffeisenstraße 1, 72810 Gomaringen, Germany",48.461723199999994,9.104622599999999
ChIJy9BCYNr9mUcRKQBU3lnANgo,0,Café im Dreikönig,cafe,"['cafe', 'restaurant', 'food', 'point_of_interest', 'establishment']",OPERATIONAL,,"Kiebinger Str. 43, 72108 Rottenburg am Neckar, Germany",48.4750422,8.9708431
ChIJeSaF9XD8mUcRDm3he7lkuMA,0,Sportgaststätte Kiebingen,restaurant,"['restaurant', 'point_of_interest', 'food', 'establishment']",OPERATIONAL,,"Im Unterdorf 28, 72108 Rottenburg am Neckar, Germany",48.478249399999996,8.9754078
ChIJk0bQgJr7mUcR-CKFCw2h2KY,0,Sportheim Bühl Inh. Gerardo Carbonaro,restaurant,"['restaurant', 'pizza_restaurant', 'italian_restaurant', 'food', 'point_of_interest', 'establishment']",OPERATIONAL,,"Sengentalstraße 60, 72072 Tübingen, Germany",48.477912800000006,8.9999874
ChIJN7o495b7mUcRgQbaxkTIkXo,0,Schützenhaus Bühl Restaurant Taverne,greek_restaurant,"['greek_restaurant', 'restaurant', 'food', 'point_of_interest', 'establishment']",OPERATIONAL,,"Sengental 1, 72072 Tübingen, Germany",48.4742592,9.0046134
ChIJBctfifbwmUcRrXoViGlewME,0,Sportgaststätte Reinenberg La Corte,italian_restaurant,"['italian_restaurant', 'restaurant', 'food', 'point_of_interest', 'establishment']",OPERATIONAL,,"Bahnhofstraße 69, 72127 Kusterdingen, Germany",48.475828,9.1179697
ChIJU3_pY4T7mUcREub8_JVTsJc,0,Gasthof 's Gräbele,restaurant,"['restaurant', 'inn', 'hotel', 'lodging', 'point_of_interest', 'food', 'establishment']",OPERATIONAL,,"Römerstraße 8, 72072 Tübingen, Germany",48.482222199999995,8.994444399999999
ChIJIbTkHI37mUcRoDRmzFClAN4,0,Dönerrizza,restaurant,"['restaurant', 'turkish_restaurant', 'meal_takeaway', 'food', 'point_of_interest', 'establishment']",OPERATIONAL,,"Eugen-Bolz-Straße 44, 72072 Tübingen, Germany",48.4830663,8.9952234
ChIJG3kcYNz7mUcR5ZdgCEXB3-I,0,ON Börek & Bakery (Turkish Bakery),bakery,"['bakery', 'turkish_restaurant', 'catering_service', 'food_delivery', 'food_store', 'event_venue', 'restaurant', 'food', 'point_of_interest', 'store', 'establishment']",OPERATIONAL,,"Eugen-Bolz-Straße 19, 72072 Tübingen, Germany",48.483256499999996,8.9978118
ChIJ9e2hy3X7mUcRAJJ8PtNdcAQ,0,Eddy’s Imbiss,meal_takeaway,"['meal_takeaway', 'restaurant', 'point_of_interest', 'food', 'establishment']",OPERATIONAL,,"Bahnhofstraße 28, 72072 Tübingen, Germany",48.4894295,9.008041100000002
ChIJhxRbsgv7mUcRMjO-1R7lUtk,0,Gasthaus Hirsch Kilchberg,restaurant,"['restaurant', 'point_of_interest', 'food', 'establishment']",OPERATIONAL,,"Closenweg 4, 72072 Tübingen, Germany",48.4892883,9.0167989
ChIJd8nlXKr7mUcRO6iJzDp3sUQ,0,Schützenhaus Weilheim,restaurant,"['restaurant', 'food', 'point_of_interest', 'establishment']",OPERATIONAL,,"Talstraße 2, 72072 Tübingen, Germany",48.4836257,9.0328602
ChIJZxx-Kln6mUcROzIKQaLPWq4,0,Restaurant Schloss Kressbach,restaurant,"['restaurant', 'point_of_interest', 'food', 'establishment']",OPERATIONAL,,"Kreßbach Hofgut 11, 72072 Tübingen, Germany",48.4814405,9.053992
ChIJEbY0PWfwmUcRX3ULHIUZ0S0,0,Mayer's Waldhorn,restaurant,"['restaurant', 'catering_service', 'hotel', 'food_delivery', 'lodging', 'food', 'point_of_interest', 'establishment']",OPERATIONAL,,"Neckar-Alb-Straße 47, 72127 Kusterdingen, Germany",48.485428999999996,9.1106436
ChIJ4VPJNj3xmUcR74Qh7Q0iz_k,0,Mayer's Sommergarten,bar,"['restaurant', 'food', 'bar', 'point_of_interest', 'establishment']",OPERATIONAL,,"Neckar-Alb-Straße 47, 72127 Kusterdingen, Germany",48.485428999999996,9.1106436
ChIJARhATH37mUcRyRmMLZdZkKw,0,Pizzeria -Sportlerstube Hirschau,italian_restaurant,"['italian_restaurant', 'restaurant', 'food', 'point_of_interest', 'establishment']",OPERATIONAL,,"Schulstraße 28, 72070 Tübingen, Germany",48.498152499999996,8.992523199999999
ChIJnQwYNXf7mUcRQiKytCB8Vn0,0,EAT HAPPY,meal_takeaway,"['sushi_restaurant', 'japanese_restaurant', 'meal_takeaway', 'restaurant', 'food', 'point_of_interest', 'establishment']",OPERATIONAL,,"Alte Landstraße 45, 72072 Tübingen, Germany",48.496616499999995,9.029984899999999
ChIJ66taiuz6mUcRFSLyQ1zeZug,0,Sportgaststätte TV Derendingen,restaurant,"['restaurant', 'food', 'point_of_interest', 'establishment']",OPERATIONAL,,"Gartenstadt 1, 72072 Tübingen, Germany",48.4969252,9.0630058
ChIJJefnUwD7mUcRw8RE8WokBsc,0,Biergarten Sudhaus,bar,"['bar', 'restaurant', 'food', 'point_of_interest', 'establishment']",OPERATIONAL,,"Hechinger Str. 203, 72072 Tübingen, Germany",48.5000448,9.0654417
ChIJocMuqXPwmUcR_FQG4_XZKr8,0,Hotel Gasthof Löwen Wankheim,hotel,"['hotel', 'lodging', 'restaurant', 'food', 'point_of_interest', 'establishment']",OPERATIONAL,,"Ob. Str. 15, 72127 Kusterdingen, Germany",48.497256900000004,9.1008237
ChIJTR3JWCjxmUcRbt_RBaruRfk,0,Ristorante Pizzeria Milano,italian_restaurant,"['italian_restaurant', 'restaurant', 'food', 'point_of_interest', 'establishment']",OPERATIONAL,,"Ob. Str. 15, 72127 Kusterdingen, Germany",48.497256900000004,9.1008237
ChIJA_PuHnPwmUcRvwRYy8yGfdg,0,Hofladen Kemmler,bakery,"['bakery', 'breakfast_restaurant', 'food_store', 'restaurant', 'food', 'point_of_interest', 'store', 'establishment']",OPERATIONAL,,"Hauptstraße 30, 72127 Kusterdingen, Germany",48.4989766,9.1014547
ChIJA_PuHnPwmUcRjsZYfTvJ-ZQ,0,Landgut Kemmler,farmstay,"['farmstay', 'coffee_shop', 'cafe', 'wholesaler', 'grocery_store', 'food_store', 'lodging', 'event_venue', 'restaurant', 'food', 'point_of_interest', 'store', 'establishment']",OPERATIONAL,,"Hauptstraße 20, 72127 Tübingen, Germany",48.4991073,9.1012811
ChIJ408GZzjwmUcRiwbNgTXYfMc,0,Gasthof Kompf,restaurant,"['restaurant', 'point_of_interest', 'food', 'establishment']",OPERATIONAL,,"Mähringer Str. 34, 72127 Kusterdingen, Germany",48.4990497,9.1275281
ChIJY4I8Je38mUcR-0CAwesMdWk,0,Gasthof Hotel Rössle & Gerry's Steakhouse,inn,"['inn', 'steak_house', 'hotel', 'lodging', 'event_venue', 'restaurant', 'food', 'point_of_interest', 'establishment']",OPERATIONAL,,"Bricciusstraße 25, 72108 Rottenburg am Neckar, Germany",48.5022222,8.9655556
ChIJR_Kkbuv8mUcRIxl8cm8Sjig,0,Besenwirtschaft Sieß,restaurant,"['restaurant', 'food', 'point_of_interest', 'establishment']",OPERATIONAL,,"Pfäffinger Str. 3, 72108 Rottenburg am Neckar, Germany",48.506493999999996,8.9656817
ChIJQS69Gk_7mUcRKNZFcYeFOnI,0,Ayla Pizza&Kebap,restaurant,"['restaurant', 'point_of_interest', 'food', 'establishment']",OPERATIONAL,,"Kingersheimer Str. 35, 72070 Tübingen, Germany",48.501466,8.9980194
ChIJNaEqSGT7mUcRu73mZS05U6g,0,Gasthof Goldener Löwe,italian_restaurant,"['italian_restaurant', 'pizza_restaurant', 'restaurant', 'point_of_interest', 'food', 'establishment']",OPERATIONAL,,"Kingersheimer Str. 18, 72070 Tübingen, Germany",48.5017256,8.998240299999999
ChIJ1ZN5p1X7mUcRZw17Vfp1M_Y,0,Da Michele,restaurant,"['restaurant', 'food', 'point_of_interest', 'establishment']",OPERATIONAL,,"Paul-Dietz-Straße 13, 72072 Tübingen, Germany",48.502296099999995,9.0538723
ChIJV8BMYOf6mUcRopufG6bi_uA,0,Gaststätte Hirsch Derendingen,restaurant,"['restaurant', 'food', 'point_of_interest', 'establishment']",OPERATIONAL,,"Jurastraße 27, 72072 Tübingen, Germany",48.503990099999996,9.050817499999999
ChIJD8qT8qX7mUcRNPwWmhNddgA,0,Memo Döner & Pizza Tübingen,turkish_restaurant,"['meal_delivery', 'turkish_restaurant', 'food_delivery', 'restaurant', 'food', 'point_of_interest', 'establishment']",OPERATIONAL,,"Derendinger Str. 103, 72072 Tübingen, Germany",48.5064117,9.0513697
ChIJf67tt936mUcRgzFJHEdI4y0,0,Berivan Pizza & Kebap,restaurant,"['fast_food_restaurant', 'pizza_restaurant', 'restaurant', 'food', 'point_of_interest', 'establishment']",OPERATIONAL,,"Heinlenstraße 8, 72072 Tübingen, Germany",48.50574650000001,9.051784699999999
ChIJF2Wg93H7mUcRfK_KN-0yTRI,0,Pan's Asian Kitchen,restaurant,"['restaurant', 'food', 'point_of_interest', 'establishment']",OPERATIONAL,,"Hechinger Str. 67, 72072 Tübingen, Germany",48.509597,9.059956399999999
ChIJqRyU3BL7mUcRutt7WumEOI0,0,"Take ,N' GO",vietnamese_restaurant,"['vietnamese_restaurant', 'meal_takeaway', 'restaurant', 'food', 'point_of_interest', 'establishment']",OPERATIONAL,,"Stuttgarter Str. 7, 72072 Tübingen, Germany",48.5096795,9.060653499999999
ChIJwynSXrr6mUcRJDnNNZkD1UU,0,Little India Restaurant,indian_restaurant,"['indian_restaurant', 'food_delivery', 'meal_takeaway', 'restaurant', 'point_of_interest', 'food', 'establishment']",OPERATIONAL,,"Landkutschersweg 2/2, 72072 Tübingen, Germany",48.5101005,9.0798421
ChIJ7azpnTnwmUcRVWTjwZxS2cI,0,crepes creatives,restaurant,"['restaurant', 'food', 'point_of_interest', 'establishment']",OPERATIONAL,,"Ochsengäßle 5, 72127 Kusterdingen, Germany",48.5020686,9.1281444
ChIJefRj7Df7mUcRDoJ6nXNh-T4,0,Schwärzlocher Hof - Gaststätte,restaurant,"['restaurant', 'food', 'point_of_interest', 'establishment']",OPERATIONAL,,"Schwärzloch 1, 72070 Tübingen, Germany",48.5173746,9.023228
ChIJSUfhKCz7mUcRkvW4DdzA1Ls,0,Coyote Cafe,bar_and_grill,"['bar_and_grill', 'mexican_restaurant', 'bar', 'restaurant', 'point_of_interest', 'food', 'establishment']",OPERATIONAL,,"Schleifmühleweg 95, 72070 Tübingen, Germany",48.520277799999995,9.039444399999999
ChIJD0eG3Sb7mUcR69WsfL5ysa4,0,Kabine5,restaurant,"['wedding_venue', 'event_venue', 'bar', 'restaurant', 'point_of_interest', 'food', 'establishment']",OPERATIONAL,,"Freibad 3, 72072 Tübingen, Germany",48.5109299,9.041559999999999
ChIJayOhYw77mUcRFmVYqY50yOg,0,An An 2 - Vietnamese Cuisine & Sushi Bar,vietnamese_restaurant,"['vietnamese_restaurant', 'sushi_restaurant', 'japanese_restaurant', 'restaurant', 'point_of_interest', 'food', 'establishment']",OPERATIONAL,,"Europastraße 40, 72072 Tübingen, Germany",48.5110568,9.0427191
ChIJx8_YONT6mUcRm0S4iRVGdMI,0,Restaurant Mauganeschtle Tübingen,restaurant,"['food_delivery', 'restaurant', 'food', 'point_of_interest', 'establishment']",OPERATIONAL,,"Burgsteige 18, 72070 Tübingen, Germany",48.519961699999996,9.0523572
ChIJC7HFCtT6mUcRob-ev5r2SjI,0,Historische Weinstube Forelle,restaurant,"['wine_bar', 'restaurant', 'food', 'bar', 'point_of_interest', 'establishment']",OPERATIONAL,,"Kronenstraße 8, 72070 Tübingen, Germany",48.5200539,9.0544383
ChIJp-1HDbH7mUcRZ-0qgD-LR3w,0,Caro's Restaurant,restaurant,"['fine_dining_restaurant', 'vegetarian_restaurant', 'restaurant', 'food', 'point_of_interest', 'establishment']",OPERATIONAL,,"Haaggasse 10, 72070 Tübingen, Germany",48.520507699999996,9.0522075
ChIJhfpzRzb7mUcROSM0C5xqSfA,0,Restaurant HILLS - Burgerclub & Steakhouse,steak_house,"['steak_house', 'vegan_restaurant', 'breakfast_restaurant', 'vegetarian_restaurant', 'brunch_restaurant', 'hamburger_restaurant', 'wine_bar', 'american_restaurant', 'restaurant', 'food', 'bar', 'point_of_interest', 'establishment']",OPERATIONAL,,"Burgsteige 7, 72070 Tübingen, Germany",48.5198567,9.0527187
ChIJPd27DNT6mUcRsJIx2HarEOQ,0,Kaffeehaus Ranitzky,cafe,"['cafe', 'restaurant', 'food', 'bar', 'point_of_interest', 'establishment']",OPERATIONAL,,"Am Markt, 72070 Tübingen, Germany",48.520168999999996,9.054003699999999
ChIJ71WmI9T6mUcRddh0j7VStjk,0,Traube,restaurant,"['restaurant', 'greek_restaurant', 'food', 'point_of_interest', 'establishment']",OPERATIONAL,,"Neckarhalde 14, 72070 Tübingen, Germany",48.5195705,9.052602
ChIJh7m47NX6mUcRgwbJLk1vDn0,0,Manufaktur,restaurant,"['restaurant', 'meal_takeaway', 'italian_restaurant', 'food', 'point_of_interest', 'establishment']",OPERATIONAL,,"Vor dem Haagtor 1/2, 72070 Tübingen, Germany",48.520327099999996,9.0495466
ChIJX4-gp9n6mUcR39N6fPlXA6I,0,Il Centro Café-Bistro & Catering & Partyservice,cafe,"['cafe', 'catering_service', 'food_delivery', 'restaurant', 'food', 'point_of_interest', 'establishment']",OPERATIONAL,,"Konrad-Adenauer-Straße 13, 72072 Tübingen, Germany",48.5113936,9.0499859
ChIJZygGFuj7mUcR0FJdppJTL7Q,0,Mr.Kebab,restaurant,"['restaurant', 'food', 'point_of_interest', 'establishment']",OPERATIONAL,,"Poststraße 2-4, 72072 Tübingen, Germany",48.516768,9.059111
ChIJPVbqNtL6mUcRr08MEmuJIgs,0,El Chico,mexican_restaurant,"['mexican_restaurant', 'hamburger_restaurant', 'spanish_restaurant', 'american_restaurant', 'cafe', 'restaurant', 'food', 'bar', 'point_of_interest', 'establishment']",OPERATIONAL,,"Gartenstraße 4, 72074 Tübingen, Germany",48.519351900000004,9.0585832
ChIJmxC1NAD7mUcR8QG5G9KY39c,0,Luca - Pizza Napoletana,pizza_restaurant,"['pizza_restaurant', 'restaurant', 'food', 'point_of_interest', 'establishment']",OPERATIONAL,,"Karlstraße 2, 72072 Tübingen, Germany",48.517764,9.0580303
ChIJzYSKNNL6mUcR2Q5TjncJPlo,0,China Restaurant San Bao,chinese_restaurant,"['chinese_restaurant', 'restaurant', 'food', 'point_of_interest', 'establishment']",OPERATIONAL,,"Neckargasse 22, 72070 Tübingen, Germany",48.5194781,9.057910099999999
ChIJ62MugdH6mUcR7IeaAY_mG24,0,Ludwigs,restaurant,"['restaurant', 'breakfast_restaurant', 'food', 'bar', 'point_of_interest', 'establishment']",OPERATIONAL,,"Uhlandstraße 1, 72072 Tübingen, Germany",48.5180253,9.0577603
ChIJZxHDkQH7mUcRRJJIquhKWAs,0,Brothersorientfood Tübingen,meal_takeaway,"['meal_takeaway', 'restaurant', 'food', 'point_of_interest', 'establishment']",OPERATIONAL,,"Gartenstraße 1, 72074 Tübingen, Germany",48.5195927,9.0583828
ChIJuZhzLaz7mUcR-RLZoGdZK-I,0,TÜ MEIN ESSEN,turkish_restaurant,"['turkish_restaurant', 'meal_takeaway', 'restaurant', 'food', 'point_of_interest', 'establishment']",OPERATIONAL,,"Poststraße 2-4, 72072 Tübingen, Germany",48.516794,9.0593729
ChIJizM6MAH7mUcR2jJcSvVhqD0,0,Ltt-lokal,mediterranean_restaurant,"['mediterranean_restaurant', 'restaurant', 'food', 'point_of_interest', 'establishment']",OPERATIONAL,,"Eberhardstraße 6, 72072 Tübingen, Germany",48.5150006,9.0635671
ChIJ5xBo29H6mUcRhd1Q5HIO8MA,0,Burgermeister Café Gino,hamburger_restaurant,"['hamburger_restaurant', 'american_restaurant', 'restaurant', 'food', 'point_of_interest', 'establishment']",OPERATIONAL,,"Poststraße 2-4, 72072 Tübingen, Germany",48.5167165,9.0593363
ChIJ--n1SdL6mUcRpASGRErF91k,0,Hao's Box,asian_restaurant,"['asian_restaurant', 'meal_takeaway', 'restaurant', 'food', 'point_of_interest', 'establishment']",OPERATIONAL,,"Mühlstraße 2, 72074 Tübingen, Germany",48.5197539,9.0581944
ChIJhYDLOdL6mUcRL47TQ1nM7gU,0,Gasthausbrauerei Neckarmüller,restaurant,"['restaurant', 'food', 'point_of_interest', 'establishment']",OPERATIONAL,,"Gartenstraße 4, 72074 Tübingen, Germany",48.519357,9.058622999999999
ChIJfe6Lh9H6mUcRgmQtePU9rSw,0,Restaurant Istanbul Tübingen,turkish_restaurant,"['turkish_restaurant', 'fast_food_restaurant', 'pizza_restaurant', 'food_delivery', 'meal_takeaway', 'restaurant', 'food', 'point_of_interest', 'establishment']",OPERATIONAL,,"Karlstraße 1, 72072 Tübingen, Germany",48.518449,9.0582403
ChIJKc8JAdH6mUcRaqU7PHUId9Q,0,Gaststätte Hauptbahnhof,restaurant,"['restaurant', 'food', 'point_of_interest', 'establishment']",OPERATIONAL,,"Europapl. 19, 72072 Tübingen, Germany",48.5159519,9.054864
ChIJCQ0dq437mUcRIhvpIGfxWiI,0,Aksaray Tübingen,turkish_restaurant,"['turkish_restaurant', 'fast_food_restaurant', 'restaurant', 'food', 'point_of_interest', 'establishment']",OPERATIONAL,,"Mühlstraße 10/1, 72074 Tübingen, Germany",48.5205625,9.0579208
ChIJI6CVktP6mUcRdoklZ-0caeA,0,Cafe Tangente Jour,cafe,"['cafe', 'restaurant', 'food', 'bar', 'point_of_interest', 'establishment']",OPERATIONAL,,"Münzgasse 17, 72070 Tübingen, Germany",48.520143999999995,9.055482999999999
ChIJJYpsxbH7mUcRJ3qMsP8OmhY,0,"GenussArt | Bistro & Café | Frühstück - Salate, Bowls & mehr - Kaffee - Kuchen | vegetarisch & vegan",cafe,"['cafe', 'vegan_restaurant', 'vegetarian_restaurant', 'catering_service', 'food_delivery', 'food_store', 'event_venue', 'restaurant', 'food', 'point_of_interest', 'store', 'establishment']",OPERATIONAL,,"Eisenbahnstraße 1, 72072 Tübingen, Germany",48.5162639,9.0631472
ChIJMTjKcn_7mUcRN2rN8A4_YZc,0,Gardens Tübingen,restaurant,"['restaurant', 'food', 'bar', 'point_of_interest', 'establishment']",OPERATIONAL,,"Gartenstraße 80, 72074 Tübingen, Germany",48.5188205,9.0712051
ChIJP2j5YRb7mUcRvlrJted0Q_c,0,Miko Döner,turkish_restaurant,"['turkish_restaurant', 'restaurant', 'food', 'point_of_interest', 'establishment']",OPERATIONAL,,"Reutlinger Str. 44, 72072 Tübingen, Germany",48.5142824,9.066264799999999
ChIJgbc7VAD7mUcRFK-2BDoQmI8,0,Emanuel Gastronomy,restaurant,"['restaurant', 'food', 'point_of_interest', 'establishment']",OPERATIONAL,,"Eisenbahnstraße 27, 72072 Tübingen, Germany",48.5155964,9.0681902
ChIJNzGjDMj6mUcRtAM9feNOR_o,0,Bien Asien,vietnamese_restaurant,"['vietnamese_restaurant', 'restaurant', 'food', 'point_of_interest', 'establishment']",OPERATIONAL,,"Eugenstraße 74, 72072 Tübingen, Germany",48.5126394,9.0699349
ChIJ1YL7FMj6mUcRusMCXLdm5JI,0,Fischfeinkost Lauriolas,restaurant,"['sushi_restaurant', 'fast_food_restaurant', 'japanese_restaurant', 'restaurant', 'food', 'point_of_interest', 'establishment']",OPERATIONAL,,"Eugenstraße 74, 72072 Tübingen, Germany",48.512650099999995,9.069626500000002
ChIJRZ6stsn6mUcR9Xazz9KPi4Y,0,Kaplan Döner Kebap House,restaurant,"['fast_food_restaurant', 'restaurant', 'food', 'point_of_interest', 'establishment']",OPERATIONAL,,"Eisenbahnstraße 32, 72072 Tübingen, Germany",48.514668,9.069754
ChIJa8lCtLP6mUcRDmCYosD7Ozk,0,JAPENGO,restaurant,"['restaurant', 'wedding_venue', 'event_venue', 'food', 'point_of_interest', 'establishment']",OPERATIONAL,,"Schaffhausenstraße 113, 72072 Tübingen, Germany",48.518418399999995,9.0817345
ChIJE5A7XwD7mUcRo1kHbllmqWs,0,Venezia,restaurant,"['restaurant', 'food', 'point_of_interest', 'establishment']",OPERATIONAL,,"Aixer Str. 23, 72072 Tübingen, Germany",48.5111614,9.0756119
ChIJz36Zt7r7mUcRFRTWt7AqvHM,0,An An,vietnamese_restaurant,"['vietnamese_restaurant', 'sushi_restaurant', 'japanese_restaurant', 'restaurant', 'food', 'point_of_interest', 'establishment']",OPERATIONAL,,"Aixer Str. 46, 72072 Tübingen, Germany",48.5108348,9.0758493
ChIJ688m6Q77mUcRgGyaJljddKs,0,Grill California,restaurant,"['restaurant', 'food', 'point_of_interest', 'establishment']",OPERATIONAL,,"Schaffhausenstraße 109, 72072 Tübingen, Germany",48.517938199999996,9.0801787
ChIJS2PzG4n7mUcRkLDEHydEi_0,0,Abhi's Lieferservice,restaurant,"['restaurant', 'meal_delivery', 'food_delivery', 'food', 'point_of_interest', 'establishment']",OPERATIONAL,,"Schaffhausenstraße 109, 72072 Tübingen, Germany",48.51790020000001,9.080184899999999
ChIJcxCnJsHxmUcRytI8wyoNivk,0,Kreis Pizza & Kebap Haus Kusterdingen,restaurant,"['restaurant', 'food', 'point_of_interest', 'establishment']",OPERATIONAL,,"In d. Braike 3, 72127 Kusterdingen, Germany",48.516594999999995,9.1216417
ChIJFT2wv8DvmUcRCZn_Fe_ieMA,0,Etna Ristorante,indian_restaurant,"['indian_restaurant', 'meal_delivery', 'food_delivery', 'meal_takeaway', 'restaurant', 'food', 'point_of_interest', 'establishment']",OPERATIONAL,,"Tübinger Str. 8, 72127 Kusterdingen, Germany",48.5200239,9.1208413
ChIJw_pHyuHvmUcRk7YxCvcKsuY,0,Im Höfle,restaurant,"['restaurant', 'food', 'point_of_interest', 'establishment']",OPERATIONAL,,"Tübinger Str. 14, 72127 Kusterdingen, Germany",48.5197012,9.120474399999999
ChIJqyQigITvmUcRH53hnYXytbw,0,Taj Tandoori,restaurant,"['restaurant', 'food', 'point_of_interest', 'establishment']",OPERATIONAL,,"Tübinger Str. 8, 72127 Kusterdingen, Germany",48.5200044,9.1208522
ChIJ__8LtM78mUcRcAT-4qM_S-w,0,Pfäffinger Pizza & Kebap Haus,turkish_restaurant,"['turkish_restaurant', 'restaurant', 'point_of_interest', 'food', 'establishment']",OPERATIONAL,,"Wiesweg 26, 72119 Ammerbuch, Germany",48.52465780000001,8.966921
ChIJYaIpZrT8mUcR_skNcYIxOvE,0,Hotel LAMM - Restaurant & Spezialitäten-Brennerei Volker Theurer,hotel,"['hotel', 'inn', 'lodging', 'liquor_store', 'restaurant', 'point_of_interest', 'farm', 'store', 'food', 'establishment']",OPERATIONAL,,"Jesinger Hauptstraße 55-57, 72070 Tübingen, Germany",48.526551999999995,8.979183599999999
ChIJSzCy1M38mUcRVWSmSvdyhrM,0,Pizzeria da Roberto,italian_restaurant,"['italian_restaurant', 'pizza_restaurant', 'restaurant', 'point_of_interest', 'food', 'establishment']",OPERATIONAL,,"Wiesweg 1, 72070 Tübingen, Germany",48.523078700000006,8.974833
ChIJJwv_GjX7mUcRBqUKy2UwLVo,0,Hotel Restaurant Kreuzberg,restaurant,"['restaurant', 'hotel', 'lodging', 'point_of_interest', 'food', 'establishment']",OPERATIONAL,,"Vor dem Kreuzberg 23, 72070 Tübingen, Germany",48.5244765,9.025634799999999
ChIJe9Db17D7mUcRlW40zvrs5Jc,0,Tetova Bar pavillon,restaurant,"['restaurant', 'night_club', 'cafe', 'food', 'bar', 'point_of_interest', 'establishment']",OPERATIONAL,,"Rheinlandstraße 32, 72070 Tübingen, Germany",48.523730300000004,9.0388377
ChIJP_9lmxz7mUcRelv5YnPMnH8,0,Domino's Pizza Tübingen Nord,pizza_restaurant,"['pizza_restaurant', 'restaurant', 'food', 'point_of_interest', 'establishment']",OPERATIONAL,,"Herrenberger Str. 68, 72070 Tübingen, Germany",48.5241406,9.0423714
ChIJjX6b37j7mUcR76qIt43y1mY,0,EAT HAPPY,meal_takeaway,"['sushi_restaurant', 'meal_takeaway', 'japanese_restaurant', 'restaurant', 'food', 'point_of_interest', 'establishment']",OPERATIONAL,,"Schleifmühleweg 36, 72070 Tübingen, Germany",48.521057,9.043997
ChIJsdMa-Mv5mUcRXIWM1xoh7OU,0,PizzA.K Tübingen,meal_delivery,"['fast_food_restaurant', 'pizza_restaurant', 'meal_delivery', 'food_delivery', 'food_store', 'italian_restaurant', 'restaurant', 'food', 'point_of_interest', 'store', 'establishment']",OPERATIONAL,,"Rheinlandstraße 32, 72070 Tübingen, Germany",48.523730300000004,9.0388377
ChIJ2RLhhi37mUcR3Ib6lzocwd4,0,Bakery Gehr bakery,bakery,"['bakery', 'breakfast_restaurant', 'coffee_shop', 'cafe', 'food_store', 'restaurant', 'food', 'point_of_interest', 'store', 'establishment']",OPERATIONAL,,"Sindelfinger Str. 4, 72070 Tübingen, Germany",48.5221084,9.0371902
ChIJS-F3I9v7mUcR3LEzf9zMT3Q,0,Taverne Olive,greek_restaurant,"['greek_restaurant', 'restaurant', 'food', 'point_of_interest', 'establishment']",OPERATIONAL,,"Jakobsgasse 2, 72070 Tübingen, Germany",48.521347,9.0520157
ChIJm7waYdT6mUcRxPFyE982gE0,0,Veggie,restaurant,"['restaurant', 'food', 'point_of_interest', 'establishment']",OPERATIONAL,,"Kornhausstraße 1, 72070 Tübingen, Germany",48.521084300000005,9.0537154
ChIJbxg5UNT6mUcRY_RPFW_mgjg,0,Restaurant Krumme Brücke,restaurant,"['restaurant', 'food', 'point_of_interest', 'establishment']",OPERATIONAL,,"Kornhausstraße 17, 72070 Tübingen, Germany",48.5210055,9.052394600000001
ChIJk3Y4aNT6mUcR2EM9uIhX7jA,0,Alte Kunst,italian_restaurant,"['italian_restaurant', 'pizza_restaurant', 'meal_takeaway', 'restaurant', 'food', 'point_of_interest', 'establishment']",OPERATIONAL,,"Marktgasse 8, 72070 Tübingen, Germany",48.5208361,9.053462399999999
ChIJScMsmdH7mUcRgH4wwvEX6fA,0,Thai-Imbiss,restaurant,"['restaurant', 'food', 'point_of_interest', 'establishment']",OPERATIONAL,,"Schmiedtorstraße 7, 72070 Tübingen, Germany",48.521886699999996,9.0520444
ChIJh1I8Olz7mUcR_2HEc2I1Hdk,0,SaiGon 1994 Restaurant,vietnamese_restaurant,"['vietnamese_restaurant', 'restaurant', 'food', 'point_of_interest', 'establishment']",OPERATIONAL,,"Belthlestraße 13, 72070 Tübingen, Germany",48.5214709,9.048493299999999
ChIJKaszZ9T6mUcR8N35L-N12yE,0,Gaststätte X,meal_takeaway,"['meal_takeaway', 'hamburger_restaurant', 'american_restaurant', 'restaurant', 'food', 'point_of_interest', 'establishment']",OPERATIONAL,,"Kornhausstraße 6, 72070 Tübingen, Germany",48.5211481,9.053524
ChIJ9UfZazf7mUcRkr_CR2lfeCs,0,Ivan Imbiss,restaurant,"['restaurant', 'food', 'point_of_interest', 'establishment']",OPERATIONAL,,"Kornhausstraße 26, 72070 Tübingen, Germany",48.5211148,9.0523314
ChIJR-qD39T6mUcR-BZbH4SLbmk,0,Laf Laf,fast_food_restaurant,"['fast_food_restaurant', 'restaurant', 'food', 'point_of_interest', 'establishment']",OPERATIONAL,,"Hintere Grabenstraße 30, 72070 Tübingen, Germany",48.5228129,9.0524953
ChIJoyQjbSr7mUcR60G1VPy0I3g,0,Maharaja Imbiss,indian_restaurant,"['indian_restaurant', 'fast_food_restaurant', 'vegan_restaurant', 'vegetarian_restaurant', 'restaurant', 'food', 'point_of_interest', 'establishment']",OPERATIONAL,,"Jakobsgasse 9, 72070 Tübingen, Germany",48.5212363,9.0513362
ChIJvRZrMCv7mUcRVFhflbgx6fU,0,China-Thai-Wok,asian_restaurant,"['asian_restaurant', 'chinese_restaurant', 'restaurant', 'food', 'point_of_interest', 'establishment']",OPERATIONAL,,"Herrenberger Str. 42, 72070 Tübingen, Germany",48.5239894,9.0453608
ChIJvXdF6ir7mUcRN0DV2i7M_6A,0,Kapadokya Döner,turkish_restaurant,"['turkish_restaurant', 'restaurant', 'food', 'point_of_interest', 'establishment']",OPERATIONAL,,"Ammer, Max-Eyth-Straße 2, 72070 Tübingen, Germany",48.5227906,9.0469569
ChIJc-huVdT6mUcR81h3AxKXJVw,0,Gasthaus Bären,restaurant,"['restaurant', 'pub', 'bar', 'food', 'point_of_interest', 'establishment']",OPERATIONAL,,"Schmiedtorstraße 3, 72070 Tübingen, Germany",48.521547,9.052050999999999
ChIJAX3cZNT6mUcRZt1F8PcjdsQ,0,Cafe Im Hirsch,cafe,"['cafe', 'breakfast_restaurant', 'coffee_shop', 'cafeteria', 'food_store', 'restaurant', 'food', 'point_of_interest', 'store', 'establishment']",OPERATIONAL,,"Hirschgasse 9, 72070 Tübingen, Germany",48.520985599999996,9.0540621
ChIJ08MPzIj7mUcRScn8KV8J5JQ,0,Laf Lafs Gemüse Kebab,meal_takeaway,"['meal_takeaway', 'restaurant', 'food', 'point_of_interest', 'establishment']",OPERATIONAL,,"Herrenberger Str. 31, 72070 Tübingen, Germany",48.5237439,9.0477335
ChIJZ9kADtP6mUcRF3IM1orJ8aI,0,Die Wurstküche,restaurant,"['restaurant', 'food', 'point_of_interest', 'establishment']",OPERATIONAL,,"Am Lustnauer Tor 8, 72074 Tübingen, Germany",48.521736999999995,9.057155999999999
ChIJ5bNxBdP6mUcRoihNgmDzZl4,0,Esszimmer,restaurant,"['restaurant', 'meal_takeaway', 'food', 'point_of_interest', 'establishment']",OPERATIONAL,,"Am Lustnauer Tor 4, 72074 Tübingen, Germany",48.521315699999995,9.057710499999999
ChIJ_TOtsC3lmUcRvMRDRc_DsYQ,0,Ban Mai Thai Restaurant,thai_restaurant,"['thai_restaurant', 'restaurant', 'food', 'point_of_interest', 'establishment']",OPERATIONAL,,"Keplerstraße 10, 72074 Tübingen, Germany",48.5268958,9.0606377
ChIJRzFgy-PlmUcRzLsMfKylwKU,0,Veggie Box,restaurant,"['restaurant', 'food', 'point_of_interest', 'establishment']",OPERATIONAL,,"Nauklerstraße 13, 72074 Tübingen, Germany",48.5265341,9.0607362
ChIJjV18-gf7mUcR8beCFXcUfCg,0,Salam's Burger,hamburger_restaurant,"['hamburger_restaurant', 'american_restaurant', 'restaurant', 'food', 'point_of_interest', 'establishment']",OPERATIONAL,,"Mühlstraße 12, 72074 Tübingen, Germany",48.5206471,9.0579152
ChIJpTQs8kf7mUcRu0kj6vnrsKY,0,Asia-Imbiss Wok-In,asian_restaurant,"['asian_restaurant', 'restaurant', 'food', 'point_of_interest', 'establishment']",OPERATIONAL,,"Wilhelmstraße 20, 72074 Tübingen, Germany",48.523073,9.059059
ChIJ8dHXli3lmUcRbSsbGrUNotc,0,Saints & Scholars Tübingen,restaurant,"['restaurant', 'cafe', 'food', 'bar', 'point_of_interest', 'establishment']",OPERATIONAL,,"Wilhelmstraße 44, 72074 Tübingen, Germany",48.5265322,9.062554
ChIJ_dVnFhvlmUcRfhmfBNArRdk,0,Oggys Grill,fast_food_restaurant,"['fast_food_restaurant', 'restaurant', 'food', 'point_of_interest', 'establishment']",OPERATIONAL,,"Keplerstraße 8, 72074 Tübingen, Germany",48.526851799999996,9.0607927
ChIJYR6MeNP6mUcRX0PfqXYXqks,0,Kichererbse,vegetarian_restaurant,"['vegetarian_restaurant', 'vegan_restaurant', 'mediterranean_restaurant', 'fast_food_restaurant', 'restaurant', 'food', 'point_of_interest', 'establishment']",OPERATIONAL,,"Metzgergasse 2, 72070 Tübingen, Germany",48.521364,9.0556098
ChIJje5bKfDlmUcRC8fNgelZCOk,0,Uni Kebap Tübingen,fast_food_restaurant,"['fast_food_restaurant', 'restaurant', 'food', 'point_of_interest', 'establishment']",OPERATIONAL,,"Wilhelmstraße 44, 72074 Tübingen, Germany",48.5267092,9.0624819
ChIJwy8qMhn7mUcRFbNaz1fkoPs,0,ChiJa Wok&Sushi,restaurant,"['restaurant', 'food', 'point_of_interest', 'establishment']",OPERATIONAL,,"Wilhelmstraße 20, 72074 Tübingen, Germany",48.5230429,9.0590459
ChIJn5ANpsv7mUcRGS2GWvH2-qs,0,1821 Tübingen,restaurant,"['restaurant', 'food', 'bar', 'point_of_interest', 'establishment']",OPERATIONAL,,"Wilhelmstraße 3, 72074 Tübingen, Germany",48.5223034,9.057802299999999
ChIJzSXehNP6mUcR1zxxeaopBXM,0,Hao's Box,restaurant,"['restaurant', 'food', 'point_of_interest', 'establishment']",OPERATIONAL,,"Lange G. 1, 72070 Tübingen, Germany",48.5207163,9.05557
ChIJg0VvmC3lmUcRIg_4wHp7_as,0,Uni-Café-Ristorante Unckel,restaurant,"['restaurant', 'pizza_restaurant', 'cafe', 'italian_restaurant', 'food', 'point_of_interest', 'establishment']",OPERATIONAL,,"Wilhelmstraße 17, 72074 Tübingen, Germany",48.526329,9.0616302
ChIJkcyzhNP6mUcRtktmko5aqu4,0,Collegium,restaurant,"['restaurant', 'pub', 'coffee_shop', 'cafe', 'food_store', 'food', 'bar', 'point_of_interest', 'store', 'establishment']",OPERATIONAL,,"Lange G. 8, 72070 Tübingen, Germany",48.52095490000001,9.055615699999999
ChIJQ4bnEdP6mUcR3w2eH4yFf1c,0,Salam Imbiss Tübingen,meal_takeaway,"['vegan_restaurant', 'vegetarian_restaurant', 'fast_food_restaurant', 'meal_takeaway', 'restaurant', 'food', 'point_of_interest', 'establishment']",OPERATIONAL,,"Am Lustnauer Tor 9, 72074 Tübingen, Germany",48.521837999999995,9.057259
ChIJ1bE7WkD7mUcRTodotd8jEoI,0,Pink Molle,restaurant,"['restaurant', 'food', 'point_of_interest', 'establishment']",OPERATIONAL,,"Mühlstraße 20, 72074 Tübingen, Germany",48.521133299999995,9.057729199999999
ChIJ74HsYgD7mUcRX5dxelNMtJc,0,short stories,restaurant,"['fast_food_restaurant', 'restaurant', 'food', 'point_of_interest', 'establishment']",OPERATIONAL,,"Am Lustnauer Tor 6, 72074 Tübingen, Germany",48.5213773,9.0571895
ChIJ8WhdiDT7mUcRJ77WT23aNh8,0,Köstlich Vegan,vegan_restaurant,"['vegan_restaurant', 'vegetarian_restaurant', 'restaurant', 'food', 'point_of_interest', 'establishment']",OPERATIONAL,,"Lange G. 22, 72070 Tübingen, Germany",48.5216415,9.0553036
ChIJR70z35n7mUcRCflCXpWQqGc,0,Restaurant La Médina,restaurant,"['vegan_restaurant', 'vegetarian_restaurant', 'brunch_restaurant', 'french_restaurant', 'middle_eastern_restaurant', 'restaurant', 'food', 'bar', 'point_of_interest', 'establishment']",OPERATIONAL,,"Metzgergasse 37, 72070 Tübingen, Germany",48.521924399999996,9.057001699999999
ChIJFbyBpqzlmUcRsrS4bNxZiQQ,0,Nachbarskind,hamburger_restaurant,"['hamburger_restaurant', 'american_restaurant', 'event_venue', 'bar', 'restaurant', 'food', 'point_of_interest', 'establishment']",OPERATIONAL,,"Dorfstraße 1, 72074 Tübingen, Germany",48.528076899999995,9.0792101
ChIJM6uNUkjlmUcRMfZcvy5-RZQ,0,Ristorante Basilikum,italian_restaurant,"['italian_restaurant', 'restaurant', 'food', 'point_of_interest', 'establishment']",OPERATIONAL,,"Kreuzstraße 24, 72074 Tübingen, Germany",48.5294878,9.0791588
ChIJP0jxB6TlmUcRf1HFfU3YNGY,0,Kohenoor - Indisches Restaurant,restaurant,"['restaurant', 'wine_bar', 'seafood_restaurant', 'liquor_store', 'vegan_restaurant', 'vegetarian_restaurant', 'indian_restaurant', 'bar', 'food', 'point_of_interest', 'store', 'establishment']",OPERATIONAL,,"Dorfstraße 2, 72074 Tübingen, Germany",48.5279123,9.079476699999999
ChIJ3aQPnUnlmUcRzkmnkC2_IH4,0,Lustnauer Mühle,italian_restaurant,"['italian_restaurant', 'pizza_restaurant', 'meal_takeaway', 'restaurant', 'food', 'point_of_interest', 'establishment']",OPERATIONAL,,"Aeulestraße 4, 72074 Tübingen, Germany",48.527611,9.0792123
ChIJoUYu3kzlmUcRvZlFPGwwndg,0,Ristorante Riva,italian_restaurant,"['italian_restaurant', 'mediterranean_restaurant', 'restaurant', 'food', 'point_of_interest', 'establishment']",OPERATIONAL,,"Bismarckstraße 144, 72072 Tübingen, Germany",48.522575499999995,9.0838668
ChIJC-BPdEnlmUcRej3fAMmVk7s,0,Restaurant Rose,greek_restaurant,"['greek_restaurant', 'restaurant', 'food', 'point_of_interest', 'establishment']",OPERATIONAL,,"Dorfstraße 2, 72074 Tübingen, Germany",48.5278838,9.079558800000001
ChIJ7QTcxknlmUcRG-l-4dpdfps,0,Pizzeria Da Giovanni,pizza_restaurant,"['pizza_restaurant', 'restaurant', 'food', 'point_of_interest', 'establishment']",OPERATIONAL,,"Alberstraße 16A, 72074 Tübingen, Germany",48.5286719,9.0779019
ChIJXVULY07lmUcR5Hc68-T4sE8,0,Gaststätte Waldhorn,greek_restaurant,"['greek_restaurant', 'restaurant', 'food', 'point_of_interest', 'establishment']",OPERATIONAL,,"Dorfstraße 88, 72074 Tübingen, Germany",48.527046999999996,9.085833599999999
ChIJmb0peSr7mUcRO0zCHnvboT0,0,Samphat Thai,thai_restaurant,"['thai_restaurant', 'asian_restaurant', 'restaurant', 'food', 'point_of_interest', 'establishment']",OPERATIONAL,,"Egeriapl. 3, 72074 Tübingen, Germany",48.527575399999996,9.088254899999999
ChIJEUaSPwr7mUcRAfhBvves8XM,0,Crêpes Bretonnes,dessert_shop,"['catering_service', 'food_delivery', 'dessert_shop', 'confectionery', 'food_store', 'restaurant', 'food', 'point_of_interest', 'store', 'establishment']",OPERATIONAL,,"Egeriapl. 12, 72074 Tübingen, Germany",48.5277594,9.0880031
ChIJ-5bKf3XlmUcRwRfmsVBct1g,0,Bocciabahn Tübingen - Juegos de Bochas,mexican_restaurant,"['mexican_restaurant', 'fast_food_restaurant', 'restaurant', 'food', 'point_of_interest', 'establishment']",OPERATIONAL,,"Nürtinger Str. 64, 72074 Tübingen, Germany",48.5279324,9.0909984
ChIJhXygP6rlmUcRRwcCYXLOVHg,0,BJ’s Grill/Imbiss&Kaffe&Kiosk,meal_takeaway,"['cafe', 'meal_takeaway', 'restaurant', 'food', 'point_of_interest', 'store', 'establishment']",OPERATIONAL,,"am Baumarkt Hornbach, Vor dem Großholz 2, 72074 Tübingen, Germany",48.522659,9.0979853
ChIJb87QMvvvmUcRYdeqUzszdvw,0,Sportheimgaststätte Kusterdingen,greek_restaurant,"['greek_restaurant', 'restaurant', 'food', 'point_of_interest', 'establishment']",OPERATIONAL,,"Jahnstraße 26, 72127 Kusterdingen, Germany",48.5259667,9.1136806
ChIJD8cLouHvmUcRxuWsiRy5vaQ,0,Stern Kebap,restaurant,"['fast_food_restaurant', 'restaurant', 'food', 'point_of_interest', 'establishment']",OPERATIONAL,,"b. d. Linde 4, 72127 Kusterdingen, Germany",48.520704099999996,9.1201577
ChIJmeaTGqbkmUcRYlcjcAJ-MPw,0,Gaststätte im Abseits,restaurant,"['restaurant', 'point_of_interest', 'food', 'establishment']",OPERATIONAL,,"Viehtorstraße 18, 72070 Tübingen, Germany",48.538253999999995,9.008702999999999
ChIJ40zo7rjkmUcRCDvZLgXSLhQ,0,Hofgut Rosenau,restaurant,"['restaurant', 'point_of_interest', 'food', 'establishment']",OPERATIONAL,,"Rosenau 15, 72076 Tübingen, Germany",48.5391845,9.027377999999999
ChIJ7Xg1psXkmUcRV6_twhzPxrw,0,mensa infopoint,restaurant,"['restaurant', 'food', 'point_of_interest', 'establishment']",OPERATIONAL,,"Auf d. Morgenstelle 26, 72076 Tübingen, Germany",48.535204,9.0362352
ChIJR5q2bpTlmUcR1piHipJGNR0,0,Faros - eine Ouzo Philosophie,greek_restaurant,"['greek_restaurant', 'bar', 'restaurant', 'food', 'point_of_interest', 'establishment']",OPERATIONAL,,"Sternwarte, Waldhäuser Str. 70, 72076 Tübingen, Germany",48.537631,9.055471
ChIJS41IiCblmUcRPdcnWt4Nixg,0,Max-Planck-Haus,restaurant,"['restaurant', 'cafe', 'food', 'point_of_interest', 'establishment']",OPERATIONAL,,"Max-Planck-Ring 13, 72076 Tübingen, Germany",48.5375022,9.0573711
ChIJu9cZ7YvlmUcRRPS7OxAUI6k,0,Spicetripping Foodtruck,indian_restaurant,"['indian_restaurant', 'restaurant', 'food', 'point_of_interest', 'establishment']",OPERATIONAL,,"Maria-von-Linden-Straße 6, 72076 Tübingen, Germany",48.5390041,9.0558367
ChIJG0vPRLPlmUcRoKUqhj2hJD0,0,Yellow Donkey - Greek Cantine,fast_food_restaurant,"['fast_food_restaurant', 'restaurant', 'food', 'point_of_interest', 'establishment']",OPERATIONAL,,"Waldhäuser Str. 70/7, 72076 Tübingen, Germany",48.537639899999995,9.0558052
ChIJ1af7iUjlmUcR8WaWMmlD4oY,0,Café/Bistro Backstein,restaurant,"['breakfast_restaurant', 'meal_takeaway', 'restaurant', 'food', 'point_of_interest', 'establishment']",OPERATIONAL,,"Dorfackerstraße 24, 72074 Tübingen, Germany",48.5309374,9.0805282
ChIJXfSTCkjlmUcRcqn42kwRveI,0,Roma Pizza Service,meal_delivery,"['pizza_restaurant', 'meal_delivery', 'thai_restaurant', 'food_delivery', 'indian_restaurant', 'meal_takeaway', 'mexican_restaurant', 'restaurant', 'food', 'point_of_interest', 'establishment']",OPERATIONAL,,"Pfrondorfer Str. 2, 72074 Tübingen, Germany",48.5319765,9.079093799999999
ChIJ6aEkk_7lmUcRCLa65OvMH-M,0,Liki Burger,hamburger_restaurant,"['hamburger_restaurant', 'fast_food_restaurant', 'american_restaurant', 'food_delivery', 'meal_takeaway', 'restaurant', 'food', 'point_of_interest', 'establishment']",OPERATIONAL,,"Bebenhäuser Str. 2, 72074 Tübingen, Germany",48.531974999999996,9.077784
ChIJX1SOPxnlmUcRTx2RPioMClc,0,Lustnauer Imbiss,restaurant,"['restaurant', 'fast_food_restaurant', 'food', 'point_of_interest', 'establishment']",OPERATIONAL,,"Wilhelmstraße 150, 72074 Tübingen, Germany",48.530892699999995,9.0766525
ChIJ_VpZalvlmUcRoBsbqcaz3S4,0,Bella Vista,italian_restaurant,"['italian_restaurant', 'restaurant', 'food', 'point_of_interest', 'establishment']",OPERATIONAL,,"Stäudach 31, 72074 Tübingen, Germany",48.534700699999995,9.0932336
ChIJrUyJiKPkmUcRHFmBOZZcK7E,0,Gaststätte Grüner Baum,restaurant,"['restaurant', 'food', 'point_of_interest', 'establishment']",OPERATIONAL,,"Am Dorfbrunnen 29, 72070 Tübingen, Germany",48.5423517,9.013214999999999
ChIJ7T7QTNzkmUcR9Ztys8-kztw,0,CAFÉ KUNSTHALLE TÜBINGEN,cafe,"['cafe', 'coffee_shop', 'food_store', 'restaurant', 'food', 'point_of_interest', 'store', 'establishment']",OPERATIONAL,,"Philosophenweg 76, 72076 Tübingen, Germany",48.541821299999995,9.047535
ChIJJz8pQ-DkmUcRrJp3p-gAar4,0,Landgasthaus Waldhäuser Hof,restaurant,"['garden', 'cafe', 'park', 'bar', 'restaurant', 'food', 'point_of_interest', 'establishment']",OPERATIONAL,,"Waldhausen 9, 72076 Tübingen, Germany",48.5455902,9.0541594
ChIJz5Y6At3kmUcR2tnooD8-CDs,0,Bella Roma + Lieferservice,italian_restaurant,"['italian_restaurant', 'pizza_restaurant', 'food_delivery', 'restaurant', 'food', 'point_of_interest', 'establishment']",OPERATIONAL,,"Hartmeyerstraße 11, 72076 Tübingen, Germany",48.542302,9.045365
ChIJH48DT9zkmUcRKhveGoFGiyc,0,Morra Imbiss,meal_takeaway,"['fast_food_restaurant', 'meal_takeaway', 'restaurant', 'food', 'point_of_interest', 'establishment']",OPERATIONAL,,"Philosophenweg 79, 72076 Tübingen, Germany",48.541554299999994,9.046767599999999
ChIJtTclK-DkmUcRPwa7adA9-xs,0,Sumalee Thai Imbiss,restaurant,"['thai_restaurant', 'meal_takeaway', 'restaurant', 'food', 'point_of_interest', 'establishment']",OPERATIONAL,,"Vogelbeerweg 4, 72076 Tübingen, Germany",48.546284799999995,9.0565629
ChIJbdl5MlblmUcRah5QRIPAcOE,0,City Treff libanesischer Imbiss -Café - Bar,meal_takeaway,"['meal_takeaway', 'restaurant', 'food', 'point_of_interest', 'establishment']",OPERATIONAL,,"Berliner Ring 20, 72076 Tübingen, Germany",48.542528999999995,9.0603115
ChIJcUF03eHkmUcRCZQIbEG1YXw,0,Restaurant Reithaus,italian_restaurant,"['italian_restaurant', 'pizza_restaurant', 'restaurant', 'food', 'point_of_interest', 'establishment']",OPERATIONAL,,"Waldhäuser Str. 136, 72076 Tübingen, Germany",48.5476252,9.0566397
ChIJq0RPM-RmCUERF0gX2wQVdg4,0,Waldgaststätte Goldersbachklause,restaurant,"['restaurant', 'hiking_area', 'sports_activity_location', 'food', 'park', 'point_of_interest', 'establishment']",OPERATIONAL,,"Beim Schlemppbrünnele 2, 72074 Tübingen, Germany",48.541144499999994,9.0775796
ChIJy30wJWLlmUcRGJ40nGv8D-0,0,Zum Albblick - Pfrondorf,restaurant,"['restaurant', 'point_of_interest', 'food', 'establishment']",OPERATIONAL,,"Steinbruchstraße 15, 72074 Tübingen, Germany",48.545559,9.105230599999999
ChIJm1H70o3vmUcR0WZwseUvxp0,0,Wanderheim Rauhalde,restaurant,"['restaurant', 'food', 'point_of_interest', 'establishment']",OPERATIONAL,,"72074 Tübingen, Germany",48.5434735,9.1167541
ChIJwecUc47vmUcRBM6a6MMKtiU,0,RAOUL RISTORANTE PIZZERIA,restaurant,"['restaurant', 'food', 'point_of_interest', 'establishment']",OPERATIONAL,,"u. Höhbergstraße 24, 72074 Tübingen, Germany",48.5442027,9.118141099999999
ChIJw5-ZOBnjmUcRPyT8yovYOpc,0,Restaurant & Ferienwohnung Ägäis,greek_restaurant,"['greek_restaurant', 'lodging', 'restaurant', 'food', 'point_of_interest', 'establishment']",OPERATIONAL,,"Herrenberger Str. 19, 72119 Ammerbuch, Germany",48.5546675,8.9651588
ChIJA_FmRxnjmUcRHn4gWdhC3LM,0,Entringen Regenbogen Imbiss,meal_takeaway,"['meal_takeaway', 'restaurant', 'food', 'point_of_interest', 'establishment']",OPERATIONAL,,"Herrenberger Str. 21, 72119 Ammerbuch, Germany",48.554770000000005,8.96513
ChIJzfpylmvjmUcRIKcqixozE10,0,Schloss Hohenentringen,restaurant,"['restaurant', 'tourist_attraction', 'bar', 'food', 'point_of_interest', 'establishment']",OPERATIONAL,,"Schloss Hohenentringen, 72119 Tübingen, Germany",48.553044,8.986711999999999
ChIJRdMzCwDjmUcR2BT6lcz4jAU,0,Biergarten Schloss Hohenentringen,restaurant,"['restaurant', 'food', 'point_of_interest', 'establishment']",OPERATIONAL,,"Schloss Hohenentringen, 72119 Ammerbuch, Germany",48.5531082,8.9862539
ChIJu799TxbjmUcRwZMZGgSPayc,0,Alfred Bauer GmbH,bar,"['bar', 'restaurant', 'food', 'point_of_interest', 'establishment']",OPERATIONAL,,"Schloss Hohenentringen, 72070 Ammerbuch, Germany",48.5532676,8.986003
ChIJO3k_Gf7kmUcRw8DOOAJfBak,0,Landhotel Hirsch,restaurant,"['restaurant', 'catering_service', 'hotel', 'lodging', 'food_delivery', 'point_of_interest', 'food', 'establishment']",OPERATIONAL,,"Schönbuchstraße 28, 72074 Tübingen, Germany",48.5594834,9.060719299999999
ChIJQ90LhXzlmUcRM2dWhyTtXAg,0,Ginger & Fred - Café und Kultur,cafe,"['cafe', 'coffee_shop', 'korean_restaurant', 'restaurant', 'point_of_interest', 'food_store', 'store', 'food', 'establishment']",OPERATIONAL,,"Im Hofstrütle 1, 72074 Tübingen, Germany",48.5521505,9.1039155
ChIJa8lCtLP6mUcREkdw8YsXSY0,0,Rainbow Dance Factory,,"['restaurant', 'point_of_interest', 'food', 'establishment']",OPERATIONAL,,"Im Hofstrütle 1, 72074 Tübingen, Germany",48.5521505,9.1039155
ChIJ568fclxmCUER3Io5Wo4bDyc,0,Sportheim TGV Entringen,italian_restaurant,"['italian_restaurant', 'food_delivery', 'meal_takeaway', 'restaurant', 'food', 'point_of_interest', 'establishment']",OPERATIONAL,,"Auf der Langenhalde 1, 72119 Ammerbuch, Germany",48.561491,8.982465399999999
ChIJGUEaZwDjmUcRdEBXQx5TF-8,0,Sportheim Mobil,meal_takeaway,"['meal_takeaway', 'restaurant', 'food', 'point_of_interest', 'establishment']",OPERATIONAL,,"Auf der Langenhalde 1, 72119 Ammerbuch, Germany",48.561456299999996,8.983673399999999
ChIJOXu42gHlmUcRGqtWRyGEimY,0,Schranners Waldhorn,restaurant,"['restaurant', 'mediterranean_restaurant', 'food', 'point_of_interest', 'establishment']",OPERATIONAL,,"Schönbuchstraße 49, 72074 Tübingen, Germany",48.5606642,9.0624758
ChIJh3CskEcPkUcRdmUJsbP7poQ,1,FC Bad Krozingen Clubheim,sports_complex,"['sports_complex', 'italian_restaurant', 'sports_activity_location', 'restaurant', 'food', 'point_of_interest', 'establishment']",OPERATIONAL,,"Erlenmattenstadion, Südring 13, 79189 Bad Krozingen, Germany",47.9095048,7.699517500000001
ChIJFXRhiWgPkUcRaHPTp_y8He8,1,Der Goldene Adler,pizza_restaurant,"['pizza_restaurant', 'restaurant', 'food', 'point_of_interest', 'establishment']",OPERATIONAL,,"Erlenmattenstadion, Südring 13, 79189 Bad Krozingen, Germany",47.9093818,7.6996254
ChIJ3T3w404PkUcRHq18rlQvRKA,1,Ristorante Pizzeria Amselhof,pizza_restaurant,"['pizza_restaurant', 'italian_restaurant', 'restaurant', 'food', 'point_of_interest', 'establishment']",OPERATIONAL,,"Kemsstraße 21, 79189 Bad Krozingen, Germany",47.9085563,7.7065256
ChIJi_gRQfQPkUcRGaLFcqtVG7k,1,Der Leckerladen,restaurant,"['restaurant', 'cafe', 'food', 'point_of_interest', 'establishment']",OPERATIONAL,,"Kemsstraße 24, 79189 Bad Krozingen, Germany",47.907984899999995,7.706859700000001
ChIJDY_3yFEPkUcRSmn0fG81r8Y,1,Landgasthof Adler,inn,"['inn', 'lodging', 'restaurant', 'food', 'point_of_interest', 'establishment']",OPERATIONAL,,"Staufener Str. 82, 79189 Bad Krozingen, Germany",47.907955,7.7113168
ChIJU4lg8usDkUcRnbKcPG8Zw_8,1,Gasthaus Rössle GmbH St. Ulrich,restaurant,"['restaurant', 'vegetarian_restaurant', 'hotel', 'lodging', 'food', 'bar', 'point_of_interest', 'establishment']",OPERATIONAL,,"St Ulrich 11, 79283 Bollschweil, Germany",47.9082407,7.838996199999999
ChIJOTFW3GADkUcRoR-4r-jyJw4,1,Berglusthaus,restaurant,"['restaurant', 'food', 'point_of_interest', 'establishment']",OPERATIONAL,,"St Ulrich, 79283 Bollschweil, Germany",47.911934599999995,7.852461699999999
ChIJl5CVZTwCkUcROHXUu0_2-dE,1,Die Bergstation,breakfast_restaurant,"['breakfast_restaurant', 'wedding_venue', 'event_venue', 'coffee_shop', 'cafe', 'restaurant', 'point_of_interest', 'food_store', 'store', 'food', 'establishment']",OPERATIONAL,,"Schauinslandstraße 390, 79117 Freiburg im Breisgau, Germany",47.909659999999995,7.8912616999999985
ChIJA-xfjRoDkUcRJhVeSHZSyvw,1,Bergwiese,restaurant,"['restaurant', 'point_of_interest', 'food', 'establishment']",OPERATIONAL,,"Stohren 23, 79244 Münstertal/Schwarzwald, Germany",47.903800700000005,7.88481
ChIJjdDmo0kDkUcR013l69IYCBs,1,Berghaus Freiburg Appartement Hotel,hotel,"['hotel', 'apartment_building', 'lodging', 'restaurant', 'point_of_interest', 'food', 'establishment']",OPERATIONAL,,"Stohren 23, 79244 Münstertal/Schwarzwald, Germany",47.90382100000001,7.8846416999999995
ChIJ1-AR2zwPkUcRJy3vin44r6g,1,Eden Hotel***S - Restaurant,restaurant,"['restaurant', 'point_of_interest', 'food', 'establishment']",OPERATIONAL,,"Thürachstraße 1, 79189 Bad Krozingen, Germany",47.9193815,7.6903453
ChIJ5Y0yrjwPkUcRd9f6EyrL6IY,1,Café & Konditorei Sahnehäuble,cafe,"['cafe', 'bakery', 'breakfast_restaurant', 'dessert_shop', 'confectionery', 'restaurant', 'point_of_interest', 'food_store', 'store', 'food', 'establishment']",OPERATIONAL,,"Thürachstraße 4, 79189 Bad Krozingen, Germany",47.9181861,7.6893067
ChIJ-TmEJYwPkUcR7Md7vCFnpdc,1,Parkhotel an der Therme Bad Krozingen,hotel,"['hotel', 'wine_bar', 'lodging', 'spa', 'event_venue', 'bar', 'cafe', 'health', 'restaurant', 'point_of_interest', 'food', 'establishment']",OPERATIONAL,,"Thürachstraße 3-5, 79189 Bad Krozingen, Germany",47.91874,7.68905
ChIJ0QcGXAAPkUcRKaU70Zc0tv8,1,Restaurant Ott,restaurant,"['restaurant', 'point_of_interest', 'food', 'establishment']",OPERATIONAL,,"Thürachstraße 5, 79189 Bad Krozingen, Germany",47.91869,7.689
ChIJOxYNbRMPkUcRbTF5pW_Gj_o,1,Restaurant Nouri Taste,restaurant,"['restaurant', 'point_of_interest', 'food', 'establishment']",OPERATIONAL,,"Herbert-Hellmann-Allee 14, 79189 Bad Krozingen, Germany",47.919352599999996,7.691327899999999
ChIJ569mBz8PkUcRmxsEKHtTLDM,1,Mcello,restaurant,"['restaurant', 'pizza_restaurant', 'food', 'point_of_interest', 'establishment']",OPERATIONAL,,"Bahnhofstraße 7, 79189 Bad Krozingen, Germany",47.9194058,7.6985303
ChIJlwkBTj8PkUcR0ezCWKh2Toc,1,Lammstube,restaurant,"['restaurant', 'lodging', 'food', 'point_of_interest', 'establishment']",OPERATIONAL,,"Lammpl. 10, 79189 Bad Krozingen, Germany",47.916960499999995,7.6995042
ChIJZYWooz0PkUcRjqdZVWgceps,1,Kurhaus Bad Krozingen,event_venue,"['event_venue', 'convention_center', 'restaurant', 'food', 'point_of_interest', 'establishment']",OPERATIONAL,,"Kurhausstraße 1, 79189 Bad Krozingen, Germany",47.9205642,7.693292800000001
ChIJNXrRLz8PkUcR6lxA3SQsB3U,1,Taj Mahal,restaurant,"['restaurant', 'food', 'point_of_interest', 'establishment']",OPERATIONAL,,"Bahnhofstraße 30, 79189 Bad Krozingen, Germany",47.917280399999996,7.6983972
ChIJq5GNXUcPkUcRqXQo3Vs_3wo,1,Kaisers Gute Backstube,bakery,"['bakery', 'breakfast_restaurant', 'cafe', 'food_store', 'restaurant', 'food', 'point_of_interest', 'store', 'establishment']",OPERATIONAL,,"Grabenstraße 6, 79189 Bad Krozingen, Germany",47.9155133,7.700706500000001
ChIJabHAXjwPkUcRm60mRQTVfDw,1,Der Weinbrunnen im Kurpark,,"['wine_bar', 'bar', 'restaurant', 'food', 'point_of_interest', 'establishment']",OPERATIONAL,,"Herbert-Hellmann-Allee 12, 79189 Bad Krozingen, Germany",47.9187005,7.692254900000001
ChIJw_R5kTgPkUcRwN75se3FKrU,1,City Imbiss,meal_takeaway,"['meal_takeaway', 'restaurant', 'food', 'point_of_interest', 'establishment']",OPERATIONAL,,"Basler Str. 6, 79189 Bad Krozingen, Germany",47.9150821,7.6991361000000005
ChIJZ_bREwAPkUcRI-4dArFOqNM,1,BoChi,asian_restaurant,"['asian_restaurant', 'vietnamese_restaurant', 'restaurant', 'food', 'point_of_interest', 'establishment']",OPERATIONAL,,"Basler Str. 37, 79189 Bad Krozingen, Germany",47.9168184,7.6996667
ChIJ26Gr0jgPkUcRw9cRgbg6QoA,1,Restaurant Eulenspiegel,restaurant,"['restaurant', 'food', 'point_of_interest', 'establishment']",OPERATIONAL,,"Schlatter Str. 3, 79189 Bad Krozingen, Germany",47.916805,7.698268499999999
ChIJL0j-3z4PkUcRBvu7-Xeay8k,1,Ibo's Döner und Pizza,meal_takeaway,"['fast_food_restaurant', 'meal_takeaway', 'restaurant', 'food', 'point_of_interest', 'establishment']",OPERATIONAL,,"Bahnhofstraße 20, 79189 Bad Krozingen, Germany",47.9180552,7.697959999999999
ChIJ7_BhvTgPkUcR6SGUxCrbhpQ,1,Corfu,greek_restaurant,"['greek_restaurant', 'mediterranean_restaurant', 'restaurant', 'food', 'point_of_interest', 'establishment']",OPERATIONAL,,"Basler Str. 13, 79189 Bad Krozingen, Germany",47.9155556,7.6994444
ChIJ38qiBKMPkUcRpcGL9SNjASY,1,Café & Bistrot Dolci & Sapori,restaurant,"['restaurant', 'food', 'point_of_interest', 'establishment']",OPERATIONAL,,"Herbert-Hellmann-Allee 1, 79189 Bad Krozingen, Germany",47.91756,7.693997200000001
ChIJka1ReEAPkUcRCSqDWdX-k74,1,"Kaisers Gute Backstube ""Vogelgezwitscher""",bakery,"['bakery', 'breakfast_restaurant', 'cafe', 'food_store', 'restaurant', 'food', 'point_of_interest', 'store', 'establishment']",OPERATIONAL,,"Staufener Str. 17, 79189 Bad Krozingen, Germany",47.919463199999996,7.7013121999999985
ChIJRQwkIkcPkUcRclRAiutdJr8,1,Palmyra-Orientalisch-Mediterranes Restaurant,restaurant,"['restaurant', 'mediterranean_restaurant', 'food', 'point_of_interest', 'establishment']",OPERATIONAL,,"Basler Str. 36, 79189 Bad Krozingen, Germany",47.9164177,7.7002162
ChIJ3w0YTz8PkUcR0gn2RL-yp3k,1,Pizzeria Rosanero,pizza_restaurant,"['pizza_restaurant', 'italian_restaurant', 'restaurant', 'food', 'point_of_interest', 'establishment']",OPERATIONAL,,"Lammpl. 13, 79189 Bad Krozingen, Germany",47.9170375,7.6998724
ChIJA9XOoUcPkUcRLwUis_AjuLg,1,Restaurant Löwen Bad Krozingen by Albrecht Hotelbetriebs- & Verwaltungs GmbH,restaurant,"['restaurant', 'food', 'point_of_interest', 'establishment']",OPERATIONAL,,"Basler Str. 7, 79189 Bad Krozingen, Germany",47.915365,7.699128699999998
ChIJCRSfLXIPkUcRxMX-WfyiB6M,1,Timi's Pizza,restaurant,"['restaurant', 'food', 'point_of_interest', 'establishment']",OPERATIONAL,,"Basler Str. 4, 79189 Bad Krozingen, Germany",47.914781399999995,7.6990224
ChIJScE0qz8PkUcRSzSYF-EocFk,1,Lichts Wurststand,meal_takeaway,"['fast_food_restaurant', 'meal_takeaway', 'restaurant', 'food', 'point_of_interest', 'establishment']",OPERATIONAL,,"Bahnhofstraße, 79189 Bad Krozingen, Germany",47.919590299999996,7.6983942
ChIJ9Vn3HgAPkUcRxYC_3J8Y97M,1,Jägerklause,bar,"['bar', 'restaurant', 'food', 'point_of_interest', 'establishment']",OPERATIONAL,,"Jägerallee 3, 79189 Bad Krozingen, Germany",47.9180947,7.698966999999999
ChIJr3AcaoUPkUcRn_E038OzpaM,1,Niwano Bad Krozingen,turkish_restaurant,"['turkish_restaurant', 'restaurant', 'point_of_interest', 'food', 'establishment']",OPERATIONAL,,"Schwarzwaldstraße 19, 79189 Bad Krozingen, Germany",47.915130000000005,7.703070899999999
ChIJF7NMyUEPkUcRmzegdrGQ0TY,1,Arkadenbistro,restaurant,"['restaurant', 'point_of_interest', 'food', 'establishment']",OPERATIONAL,,"Freiburger Str. 11, 79189 Bad Krozingen, Germany",47.920490099999995,7.705241399999999
ChIJAQBAzkEPkUcRUl0fhkaXOyo,1,Keko Kebab & Pizza,turkish_restaurant,"['turkish_restaurant', 'restaurant', 'point_of_interest', 'food', 'establishment']",OPERATIONAL,,"Freiburger Str. 11, 79189 Bad Krozingen, Germany",47.920583099999995,7.7052722000000005
ChIJ04XntEEPkUcRybpxMhU2cQI,1,Mavi Imbiss Krozingen,turkish_restaurant,"['turkish_restaurant', 'restaurant', 'point_of_interest', 'food', 'establishment']",OPERATIONAL,,"Freiburger Str. 9, 79189 Bad Krozingen, Germany",47.920296099999995,7.7045435
ChIJMaq_Y_kPkUcR1j9r6o9AhsM,1,Sushi Daily,meal_takeaway,"['meal_takeaway', 'restaurant', 'point_of_interest', 'food', 'establishment']",OPERATIONAL,,"Friedenstraße 27, 79189 Bad Krozingen, Germany",47.919255199999995,7.706857599999999
ChIJvcPCu_UPkUcRWtCkaHntAcw,1,EAT HAPPY,meal_takeaway,"['sushi_restaurant', 'meal_takeaway', 'japanese_restaurant', 'restaurant', 'point_of_interest', 'food', 'establishment']",OPERATIONAL,,"Tulpenbaumallee 22, 79189 Bad Krozingen, Germany",47.921783,7.709732
ChIJvQMRKGoPkUcR9lIAP7jIUVg,1,McDonald's,fast_food_restaurant,"['fast_food_restaurant', 'restaurant', 'point_of_interest', 'food', 'establishment']",OPERATIONAL,,"Freiburger Str. 25, 79189 Bad Krozingen, Germany",47.9234218,7.708070099999999
ChIJW7qqUEAPkUcR_gZQlKvjOQU,1,Agip Service Station,gas_station,"['gas_station', 'bakery', 'car_wash', 'restaurant', 'point_of_interest', 'food_store', 'store', 'food', 'establishment']",OPERATIONAL,,"Freiburger Str. 1, 79189 Bad Krozingen, Germany",47.9189942,7.7032115999999995
ChIJgbqTnskFkUcRsONQT-xUGcw,1,Brooklyn Burger & Grill,hamburger_restaurant,"['hamburger_restaurant', 'american_restaurant', 'restaurant', 'food', 'point_of_interest', 'establishment']",OPERATIONAL,,"Niedermattenstraße, 79238 Ehrenkirchen, Germany",47.919996999999995,7.7273821
ChIJ58_JpIsFkUcR3_vm_j3MhmQ,1,Kaisers Gute Backstube,bakery,"['bakery', 'breakfast_restaurant', 'cafe', 'food_store', 'restaurant', 'food', 'point_of_interest', 'store', 'establishment']",OPERATIONAL,,"Gewerbestraße 2, 79238 Ehrenkirchen, Germany",47.9226641,7.730811
ChIJcwc2GtMFkUcRwSyPRPttiiI,1,Sportgaststätte Ehrenkirchen,restaurant,"['restaurant', 'food', 'point_of_interest', 'establishment']",OPERATIONAL,,"Krozinger Str. 37a, 79238 Ehrenkirchen, Germany",47.9171042,7.731751799999999
ChIJj6HFTPMFkUcR8IytuFMpksM,1,Lorenz-Strauße,restaurant,"['restaurant', 'point_of_interest', 'food', 'establishment']",OPERATIONAL,,"Krozinger Str. 13, 79238 Ehrenkirchen, Germany",47.919388,7.732921499999999
ChIJuYnWMZIFkUcRG9rdDKWvZjY,1,Krone - das Gasthaus,restaurant,"['lodging', 'restaurant', 'point_of_interest', 'food', 'establishment']",OPERATIONAL,,"Herrenstraße 5, 79238 Ehrenkirchen, Germany",47.923180099999996,7.7413699
ChIJARZfWJIFkUcRck_QrpWvhUU,1,Sonne Winzerstuben Restaurant,guest_house,"['guest_house', 'lodging', 'restaurant', 'point_of_interest', 'food', 'establishment']",OPERATIONAL,,"Lazarus-Schwendi-Straße 20, 79238 Ehrenkirchen, Germany",47.92136,7.7403
ChIJU80cFTsGkUcRwYjSyrMTTZM,1,Pizza Portofino,pizza_restaurant,"['pizza_restaurant', 'restaurant', 'point_of_interest', 'food', 'establishment']",OPERATIONAL,,"Niederdorfstraße 4, 79238 Ehrenkirchen, Germany",47.9214129,7.7414209
ChIJRdn6VpIFkUcRWQdbu2g5L1o,1,Efes Kebabhaus,turkish_restaurant,"['turkish_restaurant', 'fast_food_restaurant', 'restaurant', 'point_of_interest', 'food', 'establishment']",OPERATIONAL,,"Lazarus-Schwendi-Straße 24, 79238 Ehrenkirchen, Germany",47.9215546,7.740743600000001
ChIJGVYnq8EFkUcRYP-BKvYj24Q,1,Trattoria Bella Vita,italian_restaurant,"['italian_restaurant', 'meal_takeaway', 'korean_restaurant', 'restaurant', 'food', 'point_of_interest', 'establishment']",OPERATIONAL,,"Unterdorfstraße 44, 79238 Ehrenkirchen, Germany",47.9156702,7.7517092000000005
ChIJbTVPAsEFkUcRINcS-L1TL4o,1,Löwen,restaurant,"['restaurant', 'food', 'point_of_interest', 'establishment']",OPERATIONAL,,"Wentzinger Str. 1, 79238 Ehrenkirchen, Germany",47.915569999999995,7.75249
ChIJewbAtcYFkUcRVvR_honerVA,1,China Garden,chinese_restaurant,"['chinese_restaurant', 'restaurant', 'food', 'point_of_interest', 'establishment']",OPERATIONAL,,"Wentzinger Str. 33, 79238 Ehrenkirchen, Germany",47.914246,7.7548698
ChIJo3tVw7QFkUcR-T1fzfMNC7g,1,Helin Kebap,restaurant,"['restaurant', 'food', 'point_of_interest', 'establishment']",OPERATIONAL,,"Hexentalstraße 38, 79283 Bollschweil, Germany",47.9212079,7.7897167
ChIJqdoVcEYEkUcRuXcO17-cbNk,1,bolando Dorfgasthaus,restaurant,"['restaurant', 'food', 'point_of_interest', 'establishment']",OPERATIONAL,,"Leimbachweg 1, 79283 Bollschweil, Germany",47.92006,7.7889100000000004
ChIJvQ00FJUDkUcR48AVwnULWrc,1,Sonners Heinehof,restaurant,"['restaurant', 'food', 'point_of_interest', 'establishment']",OPERATIONAL,,"St Ulrich 21, 79283 Bollschweil, Germany",47.9139074,7.8438881
ChIJpyb_yt8DkUcRx2z301L_1Vg,1,Gasthaus Buckhof,restaurant,"['restaurant', 'point_of_interest', 'food', 'establishment']",OPERATIONAL,,"Manfred Steiert, Münzenriedweg 5, 79289 Horben, Germany",47.921949999999995,7.858490000000001
ChIJKa_3R08CkUcR_N24BKJSsJI,1,Holzschlägermatte,restaurant,"['restaurant', 'food', 'point_of_interest', 'establishment']",OPERATIONAL,,"Schauinslandstraße 359, 79100 Freiburg im Breisgau, Germany",47.9151198,7.880996000000001
ChIJbXgQwOAOkUcR5tzrKPF5neM,1,Gasthaus Hirschen,restaurant,"['restaurant', 'food', 'point_of_interest', 'establishment']",OPERATIONAL,,"Lazariterstraße 22, 79189 Bad Krozingen, Germany",47.924711599999995,7.6737879
ChIJq35FbQAPkUcRJF2GnbBdpx0,1,Gasthaus s'Nolde,restaurant,"['restaurant', 'food', 'point_of_interest', 'establishment']",OPERATIONAL,,"Biengener Str. 13, 79189 Bad Krozingen, Germany",47.9257582,7.6749035
ChIJg4Af-JQPkUcRuOXViMgT6V0,1,Rustico da francesco,meal_takeaway,"['cafe', 'bakery', 'meal_takeaway', 'food_store', 'restaurant', 'food', 'point_of_interest', 'store', 'establishment']",OPERATIONAL,,"Clara-Schumann-Straße 5, 79189 Bad Krozingen, Germany",47.924588899999996,7.6994156
ChIJWZZtgGEEkUcRxAXA_jIShpk,1,Löwen,restaurant,"['restaurant', 'point_of_interest', 'food', 'establishment']",OPERATIONAL,,"Staufener Str. 10, 79294 Sölden, Germany",47.93184,7.808190000000001
ChIJhdeNU3UDkUcRmnFIwCeod40,1,Steinmühle,farmstay,"['farmstay', 'lodging', 'event_venue', 'restaurant', 'food', 'point_of_interest', 'health', 'establishment']",OPERATIONAL,,"Steinmühlenweg 9, 79289 Horben, Germany",47.9318834,7.8506487
ChIJH-AoXgYPkUcRw8KLXAvlRbs,1,Krone,restaurant,"['restaurant', 'food', 'point_of_interest', 'establishment']",OPERATIONAL,,"Hauptstraße 18, 79189 Bad Krozingen, Germany",47.9384259,7.6913812
ChIJA_aewQYPkUcRoBCBtzXpduE,1,Landgasthof Löwen,restaurant,"['inn', 'lodging', 'restaurant', 'food', 'point_of_interest', 'establishment']",OPERATIONAL,,"Hauptstraße 30, 79189 Bad Krozingen, Germany",47.938806,7.6898512
ChIJL_yb-KkPkUcRALLdis2MwIk,1,China-Restaurant Kok,chinese_restaurant,"['chinese_restaurant', 'restaurant', 'point_of_interest', 'food', 'establishment']",OPERATIONAL,,"Im Hägle 10, 79238 Ehrenkirchen, Germany",47.934034399999994,7.720891600000001
ChIJV8GQZXEPkUcRxxHN_MQwi3A,1,Gasthaus und Pension Zum Adler,guest_house,"['guest_house', 'inn', 'lodging', 'bar', 'restaurant', 'point_of_interest', 'food', 'establishment']",OPERATIONAL,,"Dorfstraße 1, 79238 Ehrenkirchen, Germany",47.9341109,7.7120872
ChIJcYza2n4PkUcRYLCF8tpU9C8,1,Devi,indian_restaurant,"['mediterranean_restaurant', 'asian_restaurant', 'catering_service', 'indian_restaurant', 'food_delivery', 'vegan_restaurant', 'vegetarian_restaurant', 'meal_takeaway', 'restaurant', 'point_of_interest', 'food', 'establishment']",OPERATIONAL,,"Bundesstraße 2, 79238 Ehrenkirchen, Germany",47.9368,7.7252
ChIJcQiS7w0PkUcRRaKwW3sz7Yc,1,Restaurant Möbelschau Norsingen,restaurant,"['restaurant', 'point_of_interest', 'food', 'establishment']",OPERATIONAL,,"Norsingen, 79238 Ehrenkirchen, Germany",47.935947399999996,7.722588599999999
ChIJnd-VUw8PkUcRgIvzujkp8F8,1,Restaurant Zum Bären - Norsingen,restaurant,"['restaurant', 'point_of_interest', 'food', 'establishment']",OPERATIONAL,,"Bundesstraße 30, 79238 Ehrenkirchen, Germany",47.939339,7.728033
ChIJLY5i4goFkUcRxnLGDep2WRQ,1,Restaurant Reblandklause,restaurant,"['restaurant', 'food', 'point_of_interest', 'establishment']",OPERATIONAL,,"Weinstraße 20a, 79292 Pfaffenweiler, Germany",47.94002,7.75801
ChIJwZlcK8sFkUcRMSOir5tfbwY,1,MS Vending Freiburg,meal_takeaway,"['meal_takeaway', 'restaurant', 'food', 'point_of_interest', 'establishment']",OPERATIONAL,,"Im Breyel 26, 79292 Pfaffenweiler, Germany",47.939049999999995,7.75418
ChIJb-fsk4UEkUcRpgUG-3-t1Hg,1,Engel,italian_restaurant,"['italian_restaurant', 'restaurant', 'food', 'point_of_interest', 'establishment']",OPERATIONAL,,"Weinbergstraße 2, 79299 Wittnau, Germany",47.9401769,7.817716300000001
ChIJFwSpdgAFkUcR3O0auAVRgC4,1,NICO - Pizzabar,restaurant,"['restaurant', 'food', 'point_of_interest', 'establishment']",OPERATIONAL,,"Weinbergstraße 2, 79299 Wittnau, Germany",47.940127999999994,7.817674899999999
ChIJo_8HbgkDkUcRoRUSH7WL9JU,1,Gasthaus zum Raben,restaurant,"['restaurant', 'hotel', 'french_restaurant', 'lodging', 'food', 'point_of_interest', 'establishment']",OPERATIONAL,,"Dorfstraße 8, 79289 Horben, Germany",47.9340495,7.858786
ChIJn3TMrDEDkUcRXqnlGvtmJ-Q,1,Restaurant Dorfchalet,restaurant,"['restaurant', 'food', 'point_of_interest', 'establishment']",OPERATIONAL,,"Dorfstraße 17, 79289 Horben, Germany",47.93374,7.85909
ChIJ_f210UQOkUcRwUilGn_bGuo,1,Fallerhof,restaurant,"['restaurant', 'extended_stay_hotel', 'motel', 'catering_service', 'hotel', 'food_delivery', 'meal_takeaway', 'lodging', 'food', 'point_of_interest', 'establishment']",OPERATIONAL,,"Tunibergstraße 2b, 79189 Bad Krozingen, Germany",47.953227999999996,7.669969099999999
ChIJ7R-Yk30FkUcRvuX9w5eMqJU,1,Gasthaus Rebstock - Hans Riehle,restaurant,"['restaurant', 'food', 'point_of_interest', 'establishment']",OPERATIONAL,,"Lindenstraße 11, 79238 Ehrenkirchen, Germany",47.945389999999996,7.734430000000001
ChIJM1oMJUIFkUcRoJSEtiuSgV8,1,Genussspielhaus,restaurant,"['restaurant', 'food', 'point_of_interest', 'establishment']",OPERATIONAL,,"Mengener Str. 2, 79238 Ehrenkirchen, Germany",47.9467776,7.732756999999999
ChIJ05zX_2UFkUcRtgwS4SRnFqg,1,Vinolivio Schallstadt,restaurant,"['restaurant', 'mediterranean_restaurant', 'food', 'point_of_interest', 'establishment']",OPERATIONAL,,"Am Hockenbuck 1, 79227 Schallstadt, Germany",47.9525447,7.7457224
ChIJV06R_64EkUcRxHez04k1Ef0,1,Colombo 7,restaurant,"['cafe', 'restaurant', 'food', 'point_of_interest', 'establishment']",OPERATIONAL,,"Kirchweg 10, 79299 Wittnau, Germany",47.9443969,7.814899499999999
ChIJxQzTCJEEkUcRydX-BudMi4g,1,Zum Hirschen - Landgasthof und Hotel,hotel,"['hotel', 'lodging', 'restaurant', 'food', 'point_of_interest', 'establishment']",OPERATIONAL,,"Schönbergstraße 11, 79299 Wittnau, Germany",47.9464724,7.814330300000001
ChIJE8wA9J4EkUcROdnaMEWHWm4,1,Schützenhaus Au,restaurant,"['restaurant', 'food', 'point_of_interest', 'establishment']",OPERATIONAL,,"Schützenhausweg 1, 79280 Au, Germany",47.9493367,7.8278379
ChIJZz7gdkQOkUcR9q1_XSu51FI,1,Hausener Kebaphaus Bad Krozingen,turkish_restaurant,"['fast_food_restaurant', 'meal_delivery', 'food_delivery', 'vegetarian_restaurant', 'meal_takeaway', 'turkish_restaurant', 'italian_restaurant', 'restaurant', 'point_of_interest', 'food', 'establishment']",OPERATIONAL,,"Falkensteinerstraße 36, 79189 Bad Krozingen, Germany",47.956874,7.669116699999999
ChIJf2NunL4PkUcR6oTUXpFNAB0,1,SC Mengen Clubheim,restaurant,"['restaurant', 'point_of_interest', 'food', 'establishment']",OPERATIONAL,,"Hinterm Hag, 79227 Schallstadt, Germany",47.9562835,7.70725
ChIJCXxew6QPkUcRmRa1jS6bkUw,1,Clubgaststätte TC Mengen,restaurant,"['restaurant', 'point_of_interest', 'food', 'establishment']",OPERATIONAL,,"Hinterm Hag 2, 79227 Schallstadt, Germany",47.955811800000006,7.706515199999999
ChIJ3czd3r8PkUcRQkWBL-anbfM,1,Casa Cente Restaurant,restaurant,"['restaurant', 'point_of_interest', 'food', 'establishment']",OPERATIONAL,,"79227 Schallstadt, Germany",47.959189599999995,7.7118962
ChIJU2BmJJUPkUcRsexRIJrP63A,1,Alemannenhof,hotel,"['hotel', 'lodging', 'restaurant', 'food', 'point_of_interest', 'establishment']",OPERATIONAL,,"Weberstraße 10, 79227 Schallstadt, Germany",47.9594574,7.715566600000001
ChIJAeI-GWgFkUcRc_5KSdM09MM,1,Rössle Schallstadt,meal_takeaway,"['meal_takeaway', 'catering_service', 'food_delivery', 'restaurant', 'food', 'point_of_interest', 'establishment']",OPERATIONAL,,"Winzerstraße 4, 79227 Schallstadt, Germany",47.9577441,7.749553199999999
ChIJH8vvfGoFkUcR75jjmTHbTvE,1,Böttchehof,restaurant,"['restaurant', 'food', 'point_of_interest', 'establishment']",OPERATIONAL,,"Basler Str. 76A, 79227 Schallstadt, Germany",47.9570946,7.757307099999999
ChIJkZOtJ2oFkUcRewQKNRBc1YA,1,Zugluft Restaurant • Bar,restaurant,"['restaurant', 'breakfast_restaurant', 'hamburger_restaurant', 'american_restaurant', 'food', 'bar', 'point_of_interest', 'establishment']",OPERATIONAL,,"Basler Str. 111, 79227 Schallstadt, Germany",47.956092899999994,7.7541169
ChIJ5fDEIQAFkUcR3Icdmt1_t70,1,Die Perle,restaurant,"['restaurant', 'food', 'point_of_interest', 'establishment']",OPERATIONAL,,"Auf d. Viehweid 1, 79227 Schallstadt, Germany",47.9584256,7.7558823
ChIJM1J6Z2oFkUcR5P_mUOqccnM,1,City Kebab & Pizza,meal_takeaway,"['meal_takeaway', 'restaurant', 'food', 'point_of_interest', 'establishment']",OPERATIONAL,,"Basler Str. 103, 79227 Schallstadt, Germany",47.9563889,7.756388899999999
ChIJwZwrJwAFkUcRZQPtLqZeNvE,1,Restaurant Desi,indian_restaurant,"['indian_restaurant', 'restaurant', 'food', 'point_of_interest', 'establishment']",OPERATIONAL,,"Waldseemüller-Straße 5, 79227 Schallstadt, Germany",47.960975,7.7557871
ChIJ436AZGoFkUcRH_27YdrSCUw,1,Da Nico,italian_restaurant,"['italian_restaurant', 'pizza_restaurant', 'restaurant', 'food', 'point_of_interest', 'establishment']",OPERATIONAL,,"Scheuerleweg 21, 79227 Schallstadt, Germany",47.9568811,7.7569287
ChIJv7f68E8FkUcRInBsimVb_QY,1,VAGA Eisbar and more GbR - (Eisdiele & Bar / Cocktails),korean_restaurant,"['korean_restaurant', 'restaurant', 'food', 'point_of_interest', 'establishment']",OPERATIONAL,,"Auf d. Viehweid 1, 79227 Schallstadt, Germany",47.958448,7.7555299
ChIJ6_kg3T8FkUcRsZdB-MACkFk,1,Hotel-Restaurant zum Ochsen / Schallstadt bei Freiburg,hotel,"['hotel', 'lodging', 'restaurant', 'food', 'point_of_interest', 'establishment']",OPERATIONAL,,"Basler Str. 50, 79227 Schallstadt, Germany",47.957933,7.7622599999999995
ChIJg_8PVjkFkUcR5o6-6mGphD8,1,Kaisers Gute Backstube,bakery,"['bakery', 'breakfast_restaurant', 'cafe', 'food_store', 'restaurant', 'food', 'point_of_interest', 'store', 'establishment']",OPERATIONAL,,"REWE, Basler Str. 12, 79227 Schallstadt, Germany",47.962208,7.768186999999999
ChIJ8RGfcKYFkUcR0RrUYNyC3ns,1,Sakis Pitagod Freiburg,greek_restaurant,"['greek_restaurant', 'restaurant', 'food', 'point_of_interest', 'establishment']",OPERATIONAL,,"Schönbergstraße 18, 79285 Ebringen, Germany",47.957322399999995,7.771583699999999
ChIJs7KMtT8FkUcR2NtzywNG2nI,1,Kaisers Gute Backstube,bakery,"['bakery', 'breakfast_restaurant', 'food_store', 'restaurant', 'food', 'point_of_interest', 'store', 'establishment']",OPERATIONAL,,"Basler Str. 39, 79227 Schallstadt, Germany",47.9583527,7.7635281
ChIJv3T1u_IFkUcRtLhbYbJLi0U,1,Eis am Brunnen,cafe,"['cafe', 'ice_cream_shop', 'dessert_shop', 'confectionery', 'food_store', 'korean_restaurant', 'restaurant', 'food', 'point_of_interest', 'store', 'establishment']",OPERATIONAL,,"Schönbergstraße 24, 79285 Ebringen, Germany",47.9574722,7.7733879
ChIJAZVS-RgFkUcRvd6Pq5AU0-w,1,Sportgaststätte FSV Ebringen,restaurant,"['restaurant', 'food', 'point_of_interest', 'establishment']",OPERATIONAL,,"Wangengraben 1, 79285 Ebringen, Germany",47.9541969,7.775271899999999
ChIJ70J5IfwFkUcRn-KNV0bSI3E,1,Schönberger Pizza&Kebab,restaurant,"['restaurant', 'food', 'point_of_interest', 'establishment']",OPERATIONAL,,"Schönbergstraße 24, 79285 Ebringen, Germany",47.9574722,7.7733879
ChIJyYwmiagckUcR0BGUqkHLqaw,1,Stefans Käsekuchen,confectionery,"['confectionery', 'food_store', 'restaurant', 'food', 'point_of_interest', 'store', 'establishment']",OPERATIONAL,,"Im Wiedenhut 2, 79285 Ebringen, Germany",47.95673,7.77617
ChIJF54utKcEkUcRFHLbfvZBtCk,1,Badischer Heldt,restaurant,"['restaurant', 'food', 'point_of_interest', 'establishment']",OPERATIONAL,,"Dorfstraße 35, 79280 Au, Germany",47.955413899999996,7.8291222
ChIJW8AQSC0FkUcRI8afr_RDAzQ,1,Das Merlin,restaurant,"['restaurant', 'food', 'point_of_interest', 'establishment']",OPERATIONAL,,"Hexentalstraße 61, 79249 Merzhausen, Germany",47.961590699999995,7.832338
ChIJz26wA1kFkUcR8Nhv-vP1tKk,1,Kim's Cakebeat,bakery,"['cafe', 'buffet_restaurant', 'bakery', 'dessert_shop', 'confectionery', 'food_store', 'dessert_restaurant', 'wholesaler', 'restaurant', 'food', 'point_of_interest', 'store', 'establishment']",OPERATIONAL,,"Hexentalstraße 63, 79249 Merzhausen, Germany",47.961108599999996,7.832024499999999
ChIJ_SgIUqYPkUcRoNCiAe1s-Fc,1,Gaststätte Clubheim Munzingen,restaurant,"['restaurant', 'food', 'point_of_interest', 'establishment']",OPERATIONAL,,"Zum Steingrüble 6, 79112 Freiburg im Breisgau, Germany",47.9675623,7.690366199999999
ChIJ4bo5WswPkUcR3d5dA-c82cQ,1,tunigarden Restaurant,restaurant,"['restaurant', 'cafe', 'food', 'bar', 'point_of_interest', 'establishment']",OPERATIONAL,,"Große Brühl 1, 79112 Freiburg im Breisgau, Germany",47.967137699999995,7.682699800000001
ChIJyXFh52wPkUcRiArsCkU55ZE,1,Restaurant Cross-over,restaurant,"['hotel', 'lodging', 'restaurant', 'food', 'point_of_interest', 'establishment']",OPERATIONAL,,"St.-Erentrudis-Straße 12, 79112 Freiburg im Breisgau, Germany",47.968705199999995,7.698063599999999
ChIJvUJNZf0PkUcRkUeutiOD75A,1,Restaurant Regional,restaurant,"['restaurant', 'food', 'point_of_interest', 'establishment']",OPERATIONAL,,"St.-Erentrudis-Straße 12, 79112 Freiburg im Breisgau, Germany",47.968615799999995,7.698488299999999
ChIJkc80QC4PkUcRLKwrNHOKizw,1,Restaurant Illyrien,restaurant,"['restaurant', 'food', 'point_of_interest', 'establishment']",OPERATIONAL,,"St.-Erentrudis-Straße 40, 79112 Freiburg im Breisgau, Germany",47.969849499999995,7.7013302999999995
ChIJdSEl0a0PkUcRfEjwroGtGpg,1,Raststätte Breisgau,rest_stop,"['rest_stop', 'meal_takeaway', 'restaurant', 'food', 'point_of_interest', 'establishment']",OPERATIONAL,,"Schulacker 3, 79227 Schallstadt, Germany",47.9704014,7.7205439
ChIJIclJQ6MPkUcRYps9Qlr5uuQ,1,Tank & Rast Gastronomie,restaurant,"['restaurant', 'point_of_interest', 'food', 'establishment']",OPERATIONAL,,"BAB5 Breisgau, 79227 Schallstadt, Germany",47.9710439,7.7226517
ChIJa29-6eUPkUcReHivtx5RcFw,1,"Coffee Fellows - Kaffee, Bagels, Frühstück",cafe,"['cafe', 'coffee_shop', 'restaurant', 'point_of_interest', 'food_store', 'store', 'food', 'establishment']",OPERATIONAL,,"Autobahn, A5, 79227 Schallstadt, Germany",47.970991,7.722558
ChIJXburN5IPkUcRu2nsswRtIzw,1,NORDSEE Autobahnraststätte T&R Breisgau Nord,seafood_restaurant,"['seafood_restaurant', 'fast_food_restaurant', 'restaurant', 'point_of_interest', 'food', 'establishment']",OPERATIONAL,,"An der A5, Fahrtrichtung Nord Breisgau, 79227 Schallstadt, Germany",47.9710975,7.7226935
ChIJlex96eUPkUcRvTsrN0dxV0Q,1,McDonald's,fast_food_restaurant,"['fast_food_restaurant', 'restaurant', 'point_of_interest', 'food', 'establishment']",OPERATIONAL,,"Raststätte Breisgau Ost, A5, 79227 Schallstadt, Germany",47.971063099999995,7.722673800000001
ChIJfzgDIAYFkUcRt-UI05jb64Q,1,café Restaurant ViKREGo Jesuitenschloss,restaurant,"['restaurant', 'point_of_interest', 'food', 'establishment']",OPERATIONAL,,"Jesuitenschloß 1, 79249 Merzhausen, Germany",47.966846499999996,7.817486199999999
ChIJj0eZBrsFkUcRMro9H-YwGkc,1,Grande Merzhausen,cafe,"['cafe', 'korean_restaurant', 'restaurant', 'point_of_interest', 'food', 'establishment']",OPERATIONAL,,"Am Marktpl. 2, 79249 Merzhausen, Germany",47.965937499999995,7.827414800000001
ChIJd4gCBK8EkUcR2qxkx_2szZo,1,Hirschen Merzhausen,restaurant,"['restaurant', 'point_of_interest', 'food', 'establishment']",OPERATIONAL,,"Dorfstraße 4, 79249 Merzhausen, Germany",47.964993199999995,7.8269172
ChIJU3Eru7MFkUcROMWH12BCD3U,1,Landgasthof Frohe Einkehr,hotel,"['hotel', 'guest_house', 'lodging', 'bar', 'restaurant', 'point_of_interest', 'food', 'establishment']",OPERATIONAL,,"Alte Str. 23, 79249 Merzhausen, Germany",47.970067,7.830099700000001
ChIJc7PUVKwEkUcRpP3yQJ3SYrM,1,Ristorante - Pizzeria Friedrichstal,italian_restaurant,"['italian_restaurant', 'pizza_restaurant', 'meal_delivery', 'food_delivery', 'restaurant', 'point_of_interest', 'food', 'establishment']",OPERATIONAL,,"Hexentalstraße 10, 79249 Merzhausen, Germany",47.970034399999996,7.8279901
ChIJHyYITMMFkUcRvwfRBMc8EgI,1,Hotel & Restaurant Grüner Baum Merzhausen,restaurant,"['restaurant', 'mediterranean_restaurant', 'catering_service', 'hotel', 'lodging', 'food_delivery', 'vegan_restaurant', 'vegetarian_restaurant', 'bar', 'cafe', 'point_of_interest', 'food', 'establishment']",OPERATIONAL,,"Hexentalstraße 35, 79249 Merzhausen, Germany",47.967118299999996,7.8288673
ChIJxbW__KwEkUcRvfsDJfhd1Wk,1,"Kaisers Gute Backstube ""KAISERLOFT""",bakery,"['bakery', 'breakfast_restaurant', 'cafe', 'restaurant', 'point_of_interest', 'food_store', 'store', 'food', 'establishment']",OPERATIONAL,,"Hexentalstraße 4, 79249 Merzhausen, Germany",47.9714027,7.8279937
ChIJS7Ngw7QbkUcRG6iBD5G_WHI,1,EAT HAPPY,meal_takeaway,"['sushi_restaurant', 'meal_takeaway', 'japanese_restaurant', 'restaurant', 'point_of_interest', 'food', 'establishment']",OPERATIONAL,,"Merzhauser Str. 172, 79100 Freiburg im Breisgau, Germany",47.973447,7.828169999999999
ChIJ3zTVeEkDkUcRnvioA9bi5sw,1,Kybfelsen,restaurant,"['bar', 'restaurant', 'point_of_interest', 'food', 'establishment']",OPERATIONAL,,"Schauinslandstraße 49, 79100 Freiburg im Breisgau, Germany",47.965444,7.857215
ChIJ45f1IkwDkUcRnO87znSTu3E,1,Gasthaus Waldheim,hotel,"['hotel', 'lodging', 'restaurant', 'point_of_interest', 'food', 'establishment']",OPERATIONAL,,"Schauinslandstraße 20, 79100 Freiburg im Breisgau, Germany",47.966666700000005,7.8525
ChIJoVZQ-0sDkUcRbgYykR5GpAg,1,Kühler Krug,restaurant,"['restaurant', 'point_of_interest', 'food', 'establishment']",OPERATIONAL,,"Torpl. 1, 79100 Freiburg im Breisgau, Germany",47.966178799999994,7.8548029999999995
ChIJz7FX8TIDkUcR1CWq4Cbaoe8,1,Waldrestaurant St. Valentin,restaurant,"['restaurant', 'point_of_interest', 'food', 'establishment']",OPERATIONAL,,"Valentinstraße 100, 79100 Freiburg im Breisgau, Germany",47.96761,7.87118
ChIJU5NAlUodkUcRo7LXlzm3M-k,1,Sportgaststätte Stammtisch,bar,"['bar', 'restaurant', 'food', 'point_of_interest', 'establishment']",OPERATIONAL,,"Großtalstraße 15, 79117 Freiburg im Breisgau, Germany",47.9683019,7.911433299999999
ChIJN8jGiMoCkUcRg3G0KSPGxZQ,1,Hotel Zum Kreuz,restaurant,"['restaurant', 'food', 'point_of_interest', 'establishment']",OPERATIONAL,,"Großtalstraße 28, 79117 Freiburg im Breisgau, Germany",47.964874099999996,7.908177200000001
ChIJf4tJa7QPkUcRUMl_YJIomwQ,1,Clubheim FC Rimsingen,restaurant,"['restaurant', 'food', 'point_of_interest', 'establishment']",OPERATIONAL,,"Munzinger Weg 3, 79206 Breisach am Rhein, Germany",47.9829021,7.6715477
ChIJxfjtaBkOkUcRaYhxfxW3_9U,1,Gasthof Löwen,guest_house,"['guest_house', 'inn', 'lodging', 'restaurant', 'food', 'point_of_interest', 'establishment']",OPERATIONAL,,"Bundesstraße 17, 79206 Breisach am Rhein, Germany",47.9774933,7.663097400000001
ChIJm3iAWRkOkUcR4On-MBCs0kg,1,Hirschen,restaurant,"['restaurant', 'food', 'point_of_interest', 'establishment']",OPERATIONAL,,"Bundesstraße 32, 79206 Breisach am Rhein, Germany",47.9779952,7.66296
ChIJt2Z39yAQkUcRhXtvLWHQ5uo,1,Breisgauer Flammkuchen,restaurant,"['restaurant', 'pizza_restaurant', 'italian_restaurant', 'food', 'point_of_interest', 'establishment']",OPERATIONAL,,"Freiburger Landstraße 22, 79112 Freiburg im Breisgau, Germany",47.9821671,7.716897099999999
ChIJVVXFLyAQkUcRUVsvp94QWtU,1,Bistro Tuniberg,restaurant,"['restaurant', 'food', 'point_of_interest', 'establishment']",OPERATIONAL,,"Freiburger Landstraße 18, 79112 Freiburg im Breisgau, Germany",47.982193099999996,7.717666299999999
ChIJHxE7MSAQkUcRDcfauj20CKw,1,Hotel-Restaurant-Bistro Tuniberg,hotel,"['hotel', 'lodging', 'bar', 'restaurant', 'food', 'point_of_interest', 'establishment']",OPERATIONAL,,"Freiburger Landstraße 20, 79112 Freiburg im Breisgau, Germany",47.982155,7.717631
ChIJAQAAADAQkUcR_DCKpPqD_8U,1,Anker,restaurant,"['restaurant', 'food', 'point_of_interest', 'establishment']",OPERATIONAL,,"Freiburger Landstraße 37, 79112 Freiburg im Breisgau, Germany",47.9822573,7.714812999999999
ChIJLQJjngIRkUcRJ9Q338wBXos,1,REWE To Go bei Aral,supermarket,"['supermarket', 'coffee_shop', 'cafe', 'grocery_store', 'bakery', 'food_store', 'restaurant', 'food', 'point_of_interest', 'store', 'establishment']",OPERATIONAL,,"Aral, Freiburger Landstraße 23, 79112 Freiburg im Breisgau, Germany",47.981856799999996,7.7179073
ChIJqxwR5CAQkUcRdJdjgO4pUoY,1,Pizza Service Italia,meal_takeaway,"['meal_takeaway', 'pizza_restaurant', 'italian_restaurant', 'meal_delivery', 'food_delivery', 'restaurant', 'food', 'point_of_interest', 'establishment']",OPERATIONAL,,"Vogteistraße 1, 79112 Freiburg im Breisgau, Germany",47.9825604,7.7143654999999995
ChIJX1sbabYakUcRBj2xv8pl6mI,1,Restaurant Extra Im Keidelbad,restaurant,"['restaurant', 'food', 'point_of_interest', 'establishment']",OPERATIONAL,,"An den Heilquellen 4, 79111 Freiburg im Breisgau, Germany",47.9833911,7.766947099999999
ChIJg3hNcvsIl0cRznrViojCiOE,1,Heftrichs Restaurant,restaurant,"['restaurant', 'point_of_interest', 'food', 'establishment']",OPERATIONAL,,"Tiengener Str. 1, 79111 Freiburg im Breisgau, Germany",47.9804564,7.7919642
ChIJC7derC8bkUcR-ALHIORVJcs,1,Pizza Kebab Haus St. Georgen,meal_takeaway,"['meal_takeaway', 'restaurant', 'food', 'point_of_interest', 'establishment']",OPERATIONAL,,"Basler Landstraße 49, 79111 Freiburg im Breisgau, Germany",47.982191,7.801262899999999
ChIJ16vKNSsbkUcRPF8GoIdHVk0,1,Wendlinger Schiere,restaurant,"['lodging', 'event_venue', 'restaurant', 'food', 'point_of_interest', 'establishment']",OPERATIONAL,,"Wendlinger Str. 25a, 79111 Freiburg im Breisgau, Germany",47.9752107,7.793776999999999
ChIJIzaoiHgbkUcREv8JpHs4rbU,1,Tiglio – Cucina | Pizza | Bar,restaurant,"['restaurant', 'italian_restaurant', 'food', 'point_of_interest', 'establishment']",OPERATIONAL,,"Basler Landstraße 79, 79111 Freiburg im Breisgau, Germany",47.9810951,7.7947804
ChIJP9IqaisbkUcRkpM45U9hxAw,1,Gasthaus Weinberg St.Georgen,restaurant,"['restaurant', 'food', 'point_of_interest', 'establishment']",OPERATIONAL,,"Weinbergstraße 2, 79111 Freiburg im Breisgau, Germany",47.9763801,7.794946699999999
ChIJoxkGKykbkUcRCRddGRZ-lGg,1,Pizzeria San Giorgio,pizza_restaurant,"['pizza_restaurant', 'italian_restaurant', 'restaurant', 'food', 'point_of_interest', 'establishment']",OPERATIONAL,,"Basler Landstraße 74A, 79111 Freiburg im Breisgau, Germany",47.9821671,7.7977503
ChIJv3-x7RobkUcRznH5OwooDSc,1,Pastevai,italian_restaurant,"['italian_restaurant', 'restaurant', 'food', 'point_of_interest', 'establishment']",OPERATIONAL,,"Am Mettweg 41, 79111 Freiburg im Breisgau, Germany",47.9797253,7.8072895
ChIJve25QQAbkUcRrhKL2KRUyDs,1,Orient Food Freiburg,turkish_restaurant,"['turkish_restaurant', 'restaurant', 'food', 'point_of_interest', 'establishment']",OPERATIONAL,,"Blumenstraße 1, 79111 Freiburg im Breisgau, Germany",47.978459699999995,7.8035248
ChIJSdPE1i8bkUcR5wh2tsHiFQA,1,Hotel Zum Schiff Restaurant Freiburg im Breisgau,hotel,"['hotel', 'bed_and_breakfast', 'lodging', 'restaurant', 'food', 'point_of_interest', 'establishment']",OPERATIONAL,,"Basler Landstraße 35-37, 79111 Freiburg im Breisgau, Germany",47.9822904,7.803518899999999
ChIJPeOgKy4bkUcRIbTcYL8WZsE,1,Kaisers Gute Backstube,bakery,"['bakery', 'breakfast_restaurant', 'cafe', 'food_store', 'restaurant', 'food', 'point_of_interest', 'store', 'establishment']",OPERATIONAL,,"Basler Landstraße 39, 79111 Freiburg im Breisgau, Germany",47.982299999999995,7.80307
ChIJLdHzITQbkUcRzXoHo58uxCE,1,Tratoria Pizzeria,restaurant,"['restaurant', 'food', 'point_of_interest', 'establishment']",OPERATIONAL,,"Schneeburgstraße 2, 79111 Freiburg im Breisgau, Germany",47.9786091,7.810532899999998
ChIJgd3OlpsbkUcRUzhH-bq7_Zo,1,EAT HAPPY,meal_takeaway,"['sushi_restaurant', 'japanese_restaurant', 'meal_takeaway', 'restaurant', 'food', 'point_of_interest', 'establishment']",OPERATIONAL,,"Basler Landstraße 30a, 79111 Freiburg im Breisgau, Germany",47.983472,7.80388
ChIJmULXBjIbkUcRdVL4yZIPkVk,1,Stubenareal,restaurant,"['restaurant', 'food', 'point_of_interest', 'establishment']",OPERATIONAL,,"Blumenstraße 9, 79111 Freiburg im Breisgau, Germany",47.9789403,7.803274999999999
ChIJ2aCMITQbkUcRk4PtJES5ybs,1,Zur Schneeburg,meal_takeaway,"['meal_takeaway', 'restaurant', 'food', 'point_of_interest', 'establishment']",OPERATIONAL,,"Schneeburgstraße 2, 79111 Freiburg im Breisgau, Germany",47.9786615,7.810491600000001
ChIJu68Dj9IbkUcRxTU4JvP006o,1,St. Georgener stüble,restaurant,"['restaurant', 'food', 'point_of_interest', 'establishment']",OPERATIONAL,,"Am Mettweg 36, 79111 Freiburg im Breisgau, Germany",47.979768899999996,7.8069702
ChIJS8wggkkbkUcRyLO6OG4LFTM,1,PSV-Gaststätte,restaurant,"['restaurant', 'food', 'point_of_interest', 'establishment']",OPERATIONAL,,"Lörracher Str. 20, 79115 Freiburg im Breisgau, Germany",47.979276999999996,7.818765300000001
ChIJoSIdj0gbkUcRlmnFdwTp4oY,1,Wirbelsturm,middle_eastern_restaurant,"['middle_eastern_restaurant', 'restaurant', 'food', 'point_of_interest', 'establishment']",OPERATIONAL,,"Wiesentalstraße 2, 79115 Freiburg im Breisgau, Germany",47.982902499999994,7.8184933
ChIJ7ziXFn8bkUcRWjNFogtf7Ts,1,Milch trifft Mehl,bakery,"['bakery', 'dessert_shop', 'confectionery', 'food_store', 'meal_takeaway', 'restaurant', 'food', 'point_of_interest', 'store', 'establishment']",OPERATIONAL,,"Wiesentalstraße 5, 79115 Freiburg im Breisgau, Germany",47.980908,7.820925
ChIJ_UkYdk0bkUcRSr8vSVMqfJo,1,Süden,restaurant,"['mediterranean_restaurant', 'french_restaurant', 'restaurant', 'point_of_interest', 'food', 'establishment']",OPERATIONAL,,"Alfred-Döblin-Platz 1, 79100 Freiburg im Breisgau, Germany",47.9752669,7.825291600000001
ChIJYZVuUiAbkUcRWsS_j-knR50,1,One Family- Falafel & Burger & Pizza,restaurant,"['restaurant', 'point_of_interest', 'food', 'establishment']",OPERATIONAL,,"Todtnauer Str. 1, 79115 Freiburg im Breisgau, Germany",47.9807458,7.824705000000001
ChIJxX-4XlUbkUcRXyGXLvoBfns,1,Wiesental Pizza & Bowl,restaurant,"['restaurant', 'point_of_interest', 'food', 'establishment']",OPERATIONAL,,"Wiesentalstraße 21A, 79115 Freiburg im Breisgau, Germany",47.978049999999996,7.82522
ChIJDXmweSEbkUcRZcAWWUXnjdU,1,Green food,restaurant,"['restaurant', 'point_of_interest', 'food', 'establishment']",OPERATIONAL,,"Paula-Modersohn-Platz 3, 79100 Freiburg im Breisgau, Germany",47.9739436,7.8282587
ChIJ482wO4wbkUcRiHdDkg-8n7U,1,Francescas Kitchen - Kochservice feinster Art,vegan_restaurant,"['vegan_restaurant', 'vegetarian_restaurant', 'restaurant', 'point_of_interest', 'food', 'establishment']",OPERATIONAL,,"Merzhauser Str. 152, 79100 Freiburg im Breisgau, Germany",47.976113,7.8270574
ChIJ5WZKWrkckUcRpnBDKmSYntI,1,Lavor Streetfood,american_restaurant,"['american_restaurant', 'restaurant', 'point_of_interest', 'food', 'establishment']",OPERATIONAL,,"Schopfheimer Str. 3, 79115 Freiburg im Breisgau, Germany",47.9816589,7.822654
ChIJi7gY600bkUcR1OipuPCgOhc,1,Villabankantine,restaurant,"['restaurant', 'catering_service', 'food_delivery', 'point_of_interest', 'food', 'establishment']",OPERATIONAL,,"Marie-Curie-Straße 1, 79100 Freiburg im Breisgau, Germany",47.9767273,7.825416199999999
ChIJfbD1mFIbkUcRsUpHakKWljA,1,Vauban Döner,turkish_restaurant,"['turkish_restaurant', 'fast_food_restaurant', 'meal_takeaway', 'restaurant', 'point_of_interest', 'food', 'establishment']",OPERATIONAL,,"Vaubanallee 1, 79100 Freiburg im Breisgau, Germany",47.9741408,7.8266228
ChIJ_dnBA6cbkUcR6WKMctNldvI,1,McDonald's Job- und KarriereCenter Breisgau,restaurant,"['restaurant', 'point_of_interest', 'food', 'establishment']",OPERATIONAL,,"Wiesentalstraße 48, 79115 Freiburg im Breisgau, Germany",47.977333599999994,7.826114400000001
ChIJS3f02U0bkUcRPH2wzFlfjbU,1,5 Senses Coffee,cafe,"['cafe', 'bakery', 'breakfast_restaurant', 'dessert_shop', 'confectionery', 'coffee_shop', 'restaurant', 'point_of_interest', 'food_store', 'store', 'food', 'establishment']",OPERATIONAL,,"Wiesentalstraße 22, 79115 Freiburg im Breisgau, Germany",47.977757999999994,7.8245979
ChIJmTuLhwIJkUcR_8ylhHS3QV4,1,"Kaisers Gute Backstube ""Vau7""",bakery,"['bakery', 'breakfast_restaurant', 'cafe', 'restaurant', 'point_of_interest', 'food_store', 'store', 'food', 'establishment']",OPERATIONAL,,"Merzhauser Str. 146, 79100 Freiburg im Breisgau, Germany",47.9766105,7.828381499999999
ChIJAfrwklcbkUcRHcva75hjXhs,1,Schloss-Cafe Lorettoberg,restaurant,"['restaurant', 'coffee_shop', 'cafe', 'food_store', 'food', 'point_of_interest', 'store', 'establishment']",OPERATIONAL,,"Kapellenweg 1, 79100 Freiburg im Breisgau, Germany",47.981205599999996,7.838612200000001
ChIJKZ-U0esbkUcRA1KEnIIiplw,1,Galle69,home_goods_store,"['rest_stop', 'restaurant', 'food', 'home_goods_store', 'point_of_interest', 'store', 'establishment']",OPERATIONAL,,"Matthias-Erzberger-Straße 69, 79100 Freiburg im Breisgau, Germany",47.982454399999995,7.8334738
ChIJK1oIW78dkUcR-DJN4MIvyp4,1,Gaststätte Pizzeria Wonnhalde,restaurant,"['wine_bar', 'ice_cream_shop', 'liquor_store', 'italian_restaurant', 'bakery', 'dessert_shop', 'confectionery', 'food_store', 'bar', 'wholesaler', 'restaurant', 'food', 'point_of_interest', 'store', 'establishment']",OPERATIONAL,,"Wonnhaldestraße 2, 79100 Freiburg im Breisgau, Germany",47.9750215,7.846792
ChIJveeUxrockUcRTIOiVVKEPp4,1,La Stazione,italian_restaurant,"['italian_restaurant', 'mediterranean_restaurant', 'restaurant', 'point_of_interest', 'food', 'establishment']",OPERATIONAL,,"Gerwigpl. 20, 79102 Freiburg im Breisgau, Germany",47.982425,7.853942
ChIJTer8jsQckUcRgHGufHp08JU,1,Waldsee,restaurant,"['restaurant', 'food', 'point_of_interest', 'establishment']",OPERATIONAL,,"Waldseestraße 84, 79117 Freiburg im Breisgau, Germany",47.9828152,7.8756034999999995
ChIJg9or9t8dkUcRnVIW8GU6Oa0,1,Gasthaus Bauerntafel auf St.Barbara,restaurant,"['restaurant', 'food', 'point_of_interest', 'establishment']",OPERATIONAL,,"Sonnenbergstraße 40, 79117 Freiburg im Breisgau, Germany",47.9749912,7.8892908
ChIJSen92SUdkUcRu25q3u947a8,1,Pizza Boxx,meal_takeaway,"['meal_delivery', 'food_delivery', 'meal_takeaway', 'restaurant', 'food', 'point_of_interest', 'establishment']",OPERATIONAL,,"Lindenmattenstraße 3, 79117 Freiburg im Breisgau, Germany",47.9799444,7.8951094
ChIJJ89OnNMdkUcRbPTcf5QVJlQ,1,Bulgaria Store,supermarket,"['supermarket', 'convenience_store', 'grocery_store', 'food_store', 'wholesaler', 'restaurant', 'food', 'point_of_interest', 'store', 'establishment']",OPERATIONAL,,"Reinhold-Schneider-Straße 18, 79117 Freiburg im Breisgau, Germany",47.98176000000001,7.90175
ChIJv38SxSUdkUcRy_zKf0AJBds,1,Ouzeria,greek_restaurant,"['greek_restaurant', 'restaurant', 'food', 'point_of_interest', 'establishment']",OPERATIONAL,,"Lindenmattenstraße 4, 79117 Freiburg im Breisgau, Germany",47.9800693,7.895646299999999
ChIJfSv9uCYdkUcRkV35wKsiLvU,1,Lindenmatte,restaurant,"['restaurant', 'afghani_restaurant', 'bar', 'food', 'point_of_interest', 'establishment']",OPERATIONAL,,"Lindenmattenstraße 20, 79117 Freiburg im Breisgau, Germany",47.982357,7.894210200000001
ChIJI9h_QSYdkUcR1aZnFv5Mqyo,1,La Corona,italian_restaurant,"['italian_restaurant', 'pizza_restaurant', 'restaurant', 'food', 'point_of_interest', 'establishment']",OPERATIONAL,,"Littenweilerstraße 20, 79117 Freiburg im Breisgau, Germany",47.9798214,7.8929842
ChIJVxenissdkUcR11hYxelPvvA,1,EAT HAPPY,meal_takeaway,"['sushi_restaurant', 'meal_takeaway', 'japanese_restaurant', 'restaurant', 'point_of_interest', 'food', 'establishment']",OPERATIONAL,,"Kappler Str. 58, 79117 Freiburg im Breisgau, Germany",47.980449,7.9046759999999985
ChIJl3v6rokdkUcR5ijxlB9lvI0,1,Patcharawadee Thai Cuisine,thai_restaurant,"['thai_restaurant', 'restaurant', 'food', 'point_of_interest', 'establishment']",OPERATIONAL,,"Krüttweg 1, 79199 Kirchzarten, Germany",47.974956,7.924383
ChIJsVUztrURkUcRropL9hae4Fc,1,Efes Kebab Schnellrestaurant,restaurant,"['restaurant', 'food', 'point_of_interest', 'establishment']",OPERATIONAL,,"Vogteistraße 9, 79112 Freiburg im Breisgau, Germany",47.9835889,7.7138496000000005
ChIJIYkvy8kakUcROSBZNOITBZg,1,Dorint Thermenhotel Freiburg,restaurant,"['restaurant', 'food', 'point_of_interest', 'establishment']",OPERATIONAL,,"An den Heilquellen 8, 79111 Freiburg im Breisgau, Germany",47.98417,7.769019999999999
ChIJIYkvy8kakUcRgsgI5sB7tvE,1,Restaurant Münstereck,restaurant,"['restaurant', 'food', 'point_of_interest', 'establishment']",OPERATIONAL,,"An den Heilquellen 8, 79111 Freiburg im Breisgau, Germany",47.98417,7.769019999999999
ChIJIYkvy8kakUcRr-r_d6ChD9c,1,Badischer Biergarten,bar,"['restaurant', 'food', 'bar', 'point_of_interest', 'establishment']",OPERATIONAL,,"An den Heilquellen 8, 79111 Freiburg im Breisgau, Germany",47.98417,7.769019999999999
ChIJYbmX-qEbkUcRWmIls2tFayo,1,Hassler's Waldstube,restaurant,"['restaurant', 'food', 'point_of_interest', 'establishment']",OPERATIONAL,,"Bötzinger Str. 16, 79111 Freiburg im Breisgau, Germany",47.9930482,7.788431999999999
ChIJ4zlnOdkakUcRMqHPjwj8otU,1,FEINHAID,restaurant,"['restaurant', 'food', 'point_of_interest', 'establishment']",OPERATIONAL,,"Munzinger Str. 10, 79111 Freiburg im Breisgau, Germany",47.9894817,7.7892408
ChIJ6-ARFe8bkUcRC4uxsggn7Ys,1,REWE To Go bei Aral,supermarket,"['supermarket', 'coffee_shop', 'cafe', 'grocery_store', 'bakery', 'food_store', 'restaurant', 'food', 'point_of_interest', 'store', 'establishment']",OPERATIONAL,,"Aral, Bötzinger Str. 19, 79111 Freiburg im Breisgau, Germany",47.99183430000001,7.789102899999999
ChIJJQKTE9oakUcRzmzgM8xQtHI,1,Asia House,chinese_restaurant,"['chinese_restaurant', 'thai_restaurant', 'restaurant', 'food', 'point_of_interest', 'establishment']",OPERATIONAL,,"Bötzinger Str. 68, 79111 Freiburg im Breisgau, Germany",47.9856209,7.7859325
ChIJ46hoB9oakUcRRby8wTnjGk8,1,Dal Blu,italian_restaurant,"['italian_restaurant', 'pizza_restaurant', 'restaurant', 'food', 'point_of_interest', 'establishment']",OPERATIONAL,,"Bötzinger Str. 15, 79111 Freiburg im Breisgau, Germany",47.992571,7.7889675
ChIJ7TTxGgAbkUcRB-bUca-ASAk,1,Nicky's Schlemmerbude,buffet_restaurant,"['buffet_restaurant', 'restaurant', 'food', 'point_of_interest', 'establishment']",OPERATIONAL,,"Bötzinger Str. 21d, 79111 Freiburg im Breisgau, Germany",47.990423799999995,7.7887863
ChIJS2fgH9wakUcRiC7SMUfkVW4,1,Curry & Fritz,fast_food_restaurant,"['fast_food_restaurant', 'restaurant', 'food', 'point_of_interest', 'establishment']",OPERATIONAL,,"Bötzinger Str. 30, 79111 Freiburg im Breisgau, Germany",47.991553800000005,7.788135800000001
ChIJWe6eNB4bkUcRLavVNl7Q3u8,1,Sidad Kebap & Pizza,restaurant,"['restaurant', 'food', 'point_of_interest', 'establishment']",OPERATIONAL,,"Waltershofener Str. 8, 79111 Freiburg im Breisgau, Germany",47.991864,7.792250300000001
ChIJJ5JuaMsbkUcRyhRNJOxVEuY,1,Breisgauer Flammkuchen,restaurant,"['restaurant', 'food', 'point_of_interest', 'establishment']",OPERATIONAL,,"Munzinger Str. 1, 79111 Freiburg im Breisgau, Germany",47.9888179,7.795555200000001
ChIJpdNjzCQbkUcRfSUZZQB-hpA,1,Olivia Center,restaurant,"['deli', 'food_store', 'restaurant', 'food', 'point_of_interest', 'store', 'establishment']",OPERATIONAL,,"im breisgau center ( Kaufland, St. Georgener Str. 2, 79111 Freiburg im Breisgau, Germany",47.9869771,7.798053999999999
ChIJlzKuagsbkUcRbpfx9Iu6NIY,1,Domino's Pizza Freiburg Südwest,pizza_restaurant,"['pizza_restaurant', 'restaurant', 'food', 'point_of_interest', 'establishment']",OPERATIONAL,,"St. Georgener Str. 9, 79111 Freiburg im Breisgau, Germany",47.9881749,7.8004785
ChIJm_dIZSYbkUcRl0PSHCZVnJk,1,Olivia Center,restaurant,"['restaurant', 'food', 'point_of_interest', 'establishment']",OPERATIONAL,,"St. Georgener Str. 2, 79111 Freiburg im Breisgau, Germany",47.98665580000001,7.798133099999999
ChIJXZkO-G4bkUcR8pgKreSrupk,1,Sushi Circle,meal_takeaway,"['meal_takeaway', 'restaurant', 'food', 'point_of_interest', 'establishment']",OPERATIONAL,,"St. Georgener Str. 2, 79111 Freiburg im Breisgau, Germany",47.98665580000001,7.798133099999999
ChIJw7ZvHicbkUcR08BOCUo9A0c,1,KIOSK-HAID,store,"['book_store', 'bakery', 'meal_takeaway', 'food_store', 'restaurant', 'food', 'point_of_interest', 'store', 'establishment']",OPERATIONAL,,"Parkplatz, Munzinger Str. 1c, 79111 Freiburg im Breisgau, Germany",47.988312799999996,7.7961612
ChIJ-RGoeyYbkUcReZy2g0HQ5w0,1,B&C Grill Express,fast_food_restaurant,"['fast_food_restaurant', 'restaurant', 'food', 'bar', 'point_of_interest', 'establishment']",OPERATIONAL,,"St. Georgener Str. 2, 79111 Freiburg im Breisgau, Germany",47.987157700000004,7.7980436
ChIJMQa0sQwbkUcRvcFkteyOESQ,1,Imbisswagen Daniela,fast_food_restaurant,"['fast_food_restaurant', 'restaurant', 'food', 'point_of_interest', 'establishment']",OPERATIONAL,,"Munzinger Str. 6, 79111 Freiburg im Breisgau, Germany",47.9901407,7.793978200000001
ChIJS0mrQyYbkUcR5734t1QINrQ,1,Asia Imbiß,chinese_restaurant,"['chinese_restaurant', 'fast_food_restaurant', 'restaurant', 'food', 'point_of_interest', 'establishment']",OPERATIONAL,,"St. Georgener Str. 4, 79111 Freiburg im Breisgau, Germany",47.9869233,7.7986592
ChIJ1ZOt8AcbkUcRMsIB_dWXI4U,1,REWE To Go bei Aral,supermarket,"['supermarket', 'coffee_shop', 'cafe', 'bakery', 'grocery_store', 'food_store', 'restaurant', 'food', 'point_of_interest', 'store', 'establishment']",OPERATIONAL,,"Aral, Besançonallee 30, 79111 Freiburg im Breisgau, Germany",47.9910429,7.798166
ChIJ11UCJ3UbkUcRQwPLi7xOUYk,1,Walee - Falafel & Hummus & Schawarma,restaurant,"['meal_takeaway', 'restaurant', 'food', 'point_of_interest', 'establishment']",OPERATIONAL,,"Munzinger Str. 6, 79111 Freiburg im Breisgau, Germany",47.9898076,7.793290600000001
ChIJMaLcE14bkUcRZ91DP-apfL8,1,Bab Tuma ( مطعم باب توما ),restaurant,"['restaurant', 'food', 'point_of_interest', 'establishment']",OPERATIONAL,,"Rankackerweg 1, 79114 Freiburg im Breisgau, Germany",47.99276,7.809268599999999
ChIJAcMW-jobkUcRXcQgn4P0qLg,1,Doz,restaurant,"['restaurant', 'food', 'point_of_interest', 'establishment']",OPERATIONAL,,"Bettackerstraße 23, 79115 Freiburg im Breisgau, Germany",47.986013899999996,7.8074781999999985
ChIJfe7W_zwbkUcR62sXB27yyu4,1,Pizza Taxi,meal_delivery,"['pizza_restaurant', 'meal_delivery', 'food_delivery', 'restaurant', 'food', 'point_of_interest', 'establishment']",OPERATIONAL,,"Auf d. Haid 9, 79114 Freiburg im Breisgau, Germany",47.991431899999995,7.809254299999999
ChIJTfaPiCUbkUcRQGC8S2mnUHM,1,Zur Hasenlaube,restaurant,"['restaurant', 'food', 'point_of_interest', 'establishment']",OPERATIONAL,,"Hagelstauden 69, 79115 Freiburg im Breisgau, Germany",47.984532099999996,7.8022967
ChIJdyscdC0bkUcRAlbQsX-4Wus,1,Pizza Passione,meal_takeaway,"['food_delivery', 'meal_takeaway', 'restaurant', 'food', 'point_of_interest', 'establishment']",OPERATIONAL,,"Auf d. Haid 67 b, 79114 Freiburg im Breisgau, Germany",47.9934276,7.8022355999999995
ChIJibZCibMbkUcRFos2eBFFwOw,1,STAR KEBAP PIZZA,fast_food_restaurant,"['fast_food_restaurant', 'restaurant', 'food', 'point_of_interest', 'establishment']",OPERATIONAL,,"Bettackerstraße 23, 79115 Freiburg im Breisgau, Germany",47.985941999999994,7.807147
ChIJDan5iWEbkUcR6pkje1Kly6s,1,GYROS LAND,fast_food_restaurant,"['fast_food_restaurant', 'restaurant', 'food', 'point_of_interest', 'establishment']",OPERATIONAL,,"Hurstweg 13A, 79114 Freiburg im Breisgau, Germany",47.990767,7.8076857
ChIJ4YbDj_kbkUcR9FGSvHX0xgw,1,Balkan Haus,hamburger_restaurant,"['hamburger_restaurant', 'american_restaurant', 'restaurant', 'food', 'point_of_interest', 'establishment']",OPERATIONAL,,"Markgrafenstraße, 79115 Freiburg im Breisgau, Germany",47.9917033,7.8162415
ChIJcSWMtzobkUcRnDz7yip6PV8,1,Schwarzer Berg,restaurant,"['restaurant', 'food', 'point_of_interest', 'establishment']",OPERATIONAL,,"Markgrafenstraße 19, 79115 Freiburg im Breisgau, Germany",47.9923954,7.8165643
ChIJx384wj8bkUcR_UrYpv61Nes,1,Antep's,restaurant,"['restaurant', 'food', 'point_of_interest', 'establishment']",OPERATIONAL,,"Markgrafenstraße 22, 79115 Freiburg im Breisgau, Germany",47.9925231,7.8172203
ChIJiWfpGgAbkUcRxybTt2fuPE4,1,Balkan Grill Pristhine,meal_takeaway,"['meal_takeaway', 'restaurant', 'food', 'point_of_interest', 'establishment']",OPERATIONAL,,"Markgrafenstraße 4A, 79115 Freiburg im Breisgau, Germany",47.9916409,7.8162274
ChIJ08VXnj8bkUcRs6I6JjKq6cM,1,Pizza Boxx,pizza_restaurant,"['pizza_restaurant', 'italian_restaurant', 'restaurant', 'food', 'point_of_interest', 'establishment']",OPERATIONAL,,"Carl-Kistner-Straße 11, 79115 Freiburg im Breisgau, Germany",47.991078800000004,7.8171332
ChIJxYqRy08bkUcRS9IiIxy6iBQ,1,Haslacher Kebaphaus,restaurant,"['restaurant', 'food', 'point_of_interest', 'establishment']",OPERATIONAL,,"Carl-Kistner-Straße 3a, 79115 Freiburg im Breisgau, Germany",47.9912614,7.816527
ChIJARygoUAbkUcR1B4WOqQlT90,1,Maria's Küche,restaurant,"['restaurant', 'food', 'point_of_interest', 'establishment']",OPERATIONAL,,"Markgrafenstraße 4, 79115 Freiburg im Breisgau, Germany",47.991570599999996,7.8161385999999995
ChIJoWjxAT8bkUcRfnfl7r-5dfg,1,Kaisers Gute Backstube,bakery,"['bakery', 'breakfast_restaurant', 'cafe', 'food_store', 'restaurant', 'food', 'point_of_interest', 'store', 'establishment']",OPERATIONAL,,"Uffhauser Str. 5, 79115 Freiburg im Breisgau, Germany",47.9907566,7.8153436
ChIJfT__mX8bkUcRsbx99kqK1EU,1,Am Kirchacker,restaurant,"['restaurant', 'food', 'point_of_interest', 'establishment']",OPERATIONAL,,"Am Kirchacker 22, 79115 Freiburg im Breisgau, Germany",47.9845524,7.812325500000001
ChIJ17iqQkYbkUcR7kMZk8Cpk-U,1,"Kaisers Gute Backstube ""diekaiserin""",bakery,"['bakery', 'breakfast_restaurant', 'cafe', 'food_store', 'restaurant', 'food', 'point_of_interest', 'store', 'establishment']",OPERATIONAL,,"Basler Str. 109, 79115 Freiburg im Breisgau, Germany",47.9849635,7.8213103
ChIJhTc6XgEbkUcRfqLygFSPuAc,1,Pizzeria Caffeteria Torino,pizza_restaurant,"['pizza_restaurant', 'restaurant', 'food', 'point_of_interest', 'establishment']",OPERATIONAL,,"Markgrafenstraße 38, 79115 Freiburg im Breisgau, Germany",47.992975799999996,7.818752999999999
